timestamp (in seconds),bus_trip_no,status,bus_stop_no,stop_id,stop_name,latitude,longitude,distance
73375,1,DISPATCHED_FROM,1,1316,NW Division & Civic Dr,45.504618,-122.441835,0.0
73380,1,TRANSIT_TO,2,1334,NW Division & Eastwood Ave,45.50461765413534,-122.44198881203008,11.986816740567793
73410,1,TRANSIT_TO,2,1334,NW Division & Eastwood Ave,45.504615578947366,-122.44291168421053,83.90771718397455
73440,1,TRANSIT_TO,2,1334,NW Division & Eastwood Ave,45.5046135037594,-122.44383455639098,155.82861762738133
73470,1,TRANSIT_TO,2,1334,NW Division & Eastwood Ave,45.50461142857143,-122.44475742857142,227.74951807078807
73500,1,TRANSIT_TO,2,1334,NW Division & Eastwood Ave,45.50460935338346,-122.44568030075187,299.67041851419486
73524,2,DISPATCHED_FROM,1,1316,NW Division & Civic Dr,45.504618,-122.441835,0.0
73530,2,TRANSIT_TO,2,1334,NW Division & Eastwood Ave,45.504617617728535,-122.44200500277007,13.248586923785457
73530,1,TRANSIT_TO,2,1334,NW Division & Eastwood Ave,45.50460727819549,-122.44660317293233,371.59131895760163
73560,2,TRANSIT_TO,2,1334,NW Division & Eastwood Ave,45.50461570637119,-122.4428550166205,79.49152154271275
73560,1,TRANSIT_TO,2,1334,NW Division & Eastwood Ave,45.50460520300752,-122.44752604511278,443.5122194010084
73590,2,TRANSIT_TO,2,1334,NW Division & Eastwood Ave,45.50461379501385,-122.44370503047091,145.73445616164003
73590,1,TRANSIT_TO,2,1334,NW Division & Eastwood Ave,45.50460312781955,-122.44844891729323,515.4331198444152
73620,2,TRANSIT_TO,2,1334,NW Division & Eastwood Ave,45.50461188365651,-122.44455504432133,211.9773907805673
73620,1,TRANSIT_TO,2,1334,NW Division & Eastwood Ave,45.50460105263158,-122.44937178947369,587.3540202878219
73650,2,TRANSIT_TO,2,1334,NW Division & Eastwood Ave,45.50460997229917,-122.44540505817174,278.2203253994946
73650,1,TRANSIT_TO,2,1334,NW Division & Eastwood Ave,45.504598977443614,-122.45029466165414,659.2749207312287
73680,2,TRANSIT_TO,2,1334,NW Division & Eastwood Ave,45.50460806094183,-122.44625507202215,344.46326001842186
73680,1,TRANSIT_TO,2,1334,NW Division & Eastwood Ave,45.50459690225564,-122.4512175338346,731.1958211746354
73710,1,TRANSIT_TO,2,1334,NW Division & Eastwood Ave,45.50459482706767,-122.45214040601503,803.1167216180422
73710,2,TRANSIT_TO,2,1334,NW Division & Eastwood Ave,45.50460614958449,-122.44710508587258,410.70619463734914
73740,2,TRANSIT_TO,2,1334,NW Division & Eastwood Ave,45.504604238227145,-122.44795509972299,476.9491292562764
73740,1,TRANSIT_TO,2,1334,NW Division & Eastwood Ave,45.5045927518797,-122.45306327819549,875.0376220614489
73770,2,TRANSIT_TO,2,1334,NW Division & Eastwood Ave,45.50460232686981,-122.44880511357341,543.1920638752038
73770,1,TRANSIT_TO,2,1334,NW Division & Eastwood Ave,45.504590676691734,-122.45398615037594,946.9585225048558
73800,1,TRANSIT_TO,2,1334,NW Division & Eastwood Ave,45.50458860150376,-122.4549090225564,1018.8794229482625
73800,2,TRANSIT_TO,2,1334,NW Division & Eastwood Ave,45.50460041551246,-122.44965512742382,609.434998494131
73830,1,TRANSIT_TO,2,1334,NW Division & Eastwood Ave,45.50458652631579,-122.45583189473685,1090.8003233916693
73830,2,TRANSIT_TO,2,1334,NW Division & Eastwood Ave,45.504598504155126,-122.45050514127423,675.6779331130583
73860,1,TRANSIT_TO,2,1334,NW Division & Eastwood Ave,45.50458445112782,-122.4567547669173,1162.721223835076
73860,2,TRANSIT_TO,2,1334,NW Division & Eastwood Ave,45.50459659279779,-122.45135515512466,741.9208677319856
73890,1,TRANSIT_TO,2,1334,NW Division & Eastwood Ave,45.504582375939854,-122.45767763909775,1234.6421242784827
73890,2,TRANSIT_TO,2,1334,NW Division & Eastwood Ave,45.504594681440445,-122.45220516897507,808.1638023509129
73920,1,TRANSIT_TO,2,1334,NW Division & Eastwood Ave,45.50458030075188,-122.4586005112782,1306.5630247218896
73920,2,TRANSIT_TO,2,1334,NW Division & Eastwood Ave,45.50459277008311,-122.45305518282548,874.4067369698402
73950,2,TRANSIT_TO,2,1334,NW Division & Eastwood Ave,45.50459085872576,-122.4539051966759,940.6496715887674
73950,1,TRANSIT_TO,2,1334,NW Division & Eastwood Ave,45.50457822556391,-122.45952338345865,1378.4839251652963
73980,1,TRANSIT_TO,2,1334,NW Division & Eastwood Ave,45.50457615037594,-122.4604462556391,1450.404825608703
73980,2,TRANSIT_TO,2,1334,NW Division & Eastwood Ave,45.504588947368426,-122.45475521052632,1006.8926062076947
74010,1,TRANSIT_TO,2,1334,NW Division & Eastwood Ave,45.504574075187975,-122.46136912781955,1522.3257260521098
74010,2,TRANSIT_TO,2,1334,NW Division & Eastwood Ave,45.50458703601108,-122.45560522437674,1073.135540826622
74040,2,TRANSIT_TO,2,1334,NW Division & Eastwood Ave,45.504585124653744,-122.45645523822715,1139.3784754455492
74040,1,STOPPED_AT,2,1334,NW Division & Eastwood Ave,45.504572,-122.462292,1594.2466264955167
74070,2,TRANSIT_TO,2,1334,NW Division & Eastwood Ave,45.5045832132964,-122.45730525207756,1205.6214100644765
74070,1,TRANSIT_TO,3,1360,SE Division & 101st Ave,45.5045422,-122.4818374,3117.4491242623308
74100,2,TRANSIT_TO,2,1334,NW Division & Eastwood Ave,45.50458130193906,-122.45815526592799,1271.864344683404
74100,1,TRANSIT_TO,3,1360,SE Division & 101st Ave,45.504492533333334,-122.51441306666666,5656.119953873687
74130,1,TRANSIT_TO,3,1360,SE Division & 101st Ave,45.50444286666667,-122.54698873333334,8194.790783485045
74130,2,TRANSIT_TO,2,1334,NW Division & Eastwood Ave,45.50457939058172,-122.4590052797784,1338.107279302331
74142,1,STOPPED_AT,3,1360,SE Division & 101st Ave,45.504423,-122.560019,9210.259115329587
74160,1,TRANSIT_TO,4,1381,SE Division & 122nd Ave,45.50440953333334,-122.5585624,9323.7841180534
74160,2,TRANSIT_TO,2,1334,NW Division & Eastwood Ave,45.50457747922438,-122.45985529362882,1404.3502139212585
74190,1,TRANSIT_TO,4,1381,SE Division & 122nd Ave,45.504369133333334,-122.5541926,9664.359126224837
74190,2,TRANSIT_TO,2,1334,NW Division & Eastwood Ave,45.504575567867036,-122.46070530747923,1470.5931485401857
74220,1,TRANSIT_TO,4,1381,SE Division & 122nd Ave,45.50432873333334,-122.5498228,10004.934134396277
74220,2,TRANSIT_TO,2,1334,NW Division & Eastwood Ave,45.5045736565097,-122.46155532132964,1536.836083159113
74246,2,STOPPED_AT,2,1334,NW Division & Eastwood Ave,45.504572,-122.462292,1594.2466264955167
74250,2,DWELL_AT,2,1334,NW Division & Eastwood Ave,45.504572,-122.462292,1594.2466264955167
74250,1,TRANSIT_TO,4,1381,SE Division & 122nd Ave,45.504288333333335,-122.545453,10345.509142567715
74280,2,TRANSIT_TO,3,1360,SE Division & 101st Ave,45.50454716666667,-122.47857983333334,2863.582041301195
74280,1,TRANSIT_TO,4,1381,SE Division & 122nd Ave,45.50424793333333,-122.54108319999999,10686.084150739154
74286,3,DISPATCHED_FROM,1,1316,NW Division & Civic Dr,45.504618,-122.441835,0.0
74286,4,DISPATCHED_FROM,1,1316,NW Division & Civic Dr,45.504618,-122.441835,0.0
74300,1,STOPPED_AT,4,1381,SE Division & 122nd Ave,45.504221,-122.53817,10913.13415618678
74310,1,DWELL_AT,4,1381,SE Division & 122nd Ave,45.504221,-122.53817,10913.13415618678
74310,2,TRANSIT_TO,3,1360,SE Division & 101st Ave,45.5044975,-122.5111555,5402.252870912552
74310,4,TRANSIT_TO,2,1334,NW Division & Eastwood Ave,45.504613049327354,-122.44403665022422,171.5781122685758
74310,3,TRANSIT_TO,2,1334,NW Division & Eastwood Ave,45.50460531034483,-122.44747831034482,439.79217282634943
74340,2,TRANSIT_TO,3,1360,SE Division & 101st Ave,45.50444783333334,-122.54373116666666,7940.923700523908
74340,4,TRANSIT_TO,2,1334,NW Division & Eastwood Ave,45.50460686098655,-122.44678871300448,386.05075260429555
74340,1,TRANSIT_TO,5,1387,SE Division & 130th Ave,45.504200600000004,-122.5347912,11176.459711721664
74340,3,TRANSIT_TO,2,1334,NW Division & Eastwood Ave,45.504589448275865,-122.45453244827587,989.5323888592862
74355,2,STOPPED_AT,3,1360,SE Division & 101st Ave,45.504423,-122.560019,9210.259115329587
74370,3,TRANSIT_TO,2,1334,NW Division & Eastwood Ave,45.5045735862069,-122.4615865862069,1539.272604892223
74370,2,TRANSIT_TO,4,1381,SE Division & 122nd Ave,45.50440857142858,-122.55845835714285,9331.893046819387
74370,1,TRANSIT_TO,5,1387,SE Division & 130th Ave,45.504175100000005,-122.5305677,11505.616656140268
74370,4,TRANSIT_TO,2,1334,NW Division & Eastwood Ave,45.50460067264574,-122.44954077578475,600.5233929400152
74373,3,STOPPED_AT,2,1334,NW Division & Eastwood Ave,45.504572,-122.462292,1594.2466264955167
74376,1,STOPPED_AT,5,1387,SE Division & 130th Ave,45.50417,-122.529723,11571.44804502399
74400,3,TRANSIT_TO,3,1360,SE Division & 101st Ave,45.504552459016395,-122.47510865573771,2593.0679365065425
74400,1,TRANSIT_TO,6,1390,SE Division & 135th Ave,45.504169350000005,-122.52872741666667,11649.035663876453
74400,4,TRANSIT_TO,2,1334,NW Division & Eastwood Ave,45.50459448430493,-122.45229283856503,814.996033275735
74400,2,TRANSIT_TO,4,1381,SE Division & 122nd Ave,45.50437527472528,-122.55485687362636,9612.58673487277
74430,1,TRANSIT_TO,6,1390,SE Division & 135th Ave,45.50416785,-122.52642991666666,11828.084015074444
74430,4,TRANSIT_TO,2,1334,NW Division & Eastwood Ave,45.504588295964126,-122.45504490134529,1029.4686736114547
74430,3,TRANSIT_TO,3,1360,SE Division & 101st Ave,45.504515819672136,-122.49913988524591,4465.857892777215
74430,2,TRANSIT_TO,4,1381,SE Division & 122nd Ave,45.50434197802198,-122.55125539010989,9893.280422926153
74447,1,STOPPED_AT,6,1390,SE Division & 135th Ave,45.504167,-122.525128,11929.544747419974
74460,3,TRANSIT_TO,3,1360,SE Division & 101st Ave,45.50447918032787,-122.52317111475409,6338.6478490478885
74460,2,TRANSIT_TO,4,1381,SE Division & 122nd Ave,45.50430868131868,-122.5476539065934,10173.974110979536
74460,4,TRANSIT_TO,2,1334,NW Division & Eastwood Ave,45.50458210762332,-122.45779696412556,1243.9413139471744
74460,1,TRANSIT_TO,7,1396,SE Division & 142nd Ave,45.50416857142857,-122.5249343095238,11944.640394631528
74490,1,TRANSIT_TO,7,1396,SE Division & 142nd Ave,45.50418428571429,-122.5229974047619,12095.596866747073
74490,4,TRANSIT_TO,2,1334,NW Division & Eastwood Ave,45.504575919282516,-122.46054902690584,1458.4139542828943
74490,3,TRANSIT_TO,3,1360,SE Division & 101st Ave,45.50444254098361,-122.54720234426229,8211.437805318561
74490,2,TRANSIT_TO,4,1381,SE Division & 122nd Ave,45.50427538461538,-122.54405242307692,10454.667799032919
74506,3,STOPPED_AT,3,1360,SE Division & 101st Ave,45.504423,-122.560019,9210.259115329587
74509,4,STOPPED_AT,2,1334,NW Division & Eastwood Ave,45.504572,-122.462292,1594.2466264955167
74520,4,DWELL_AT,2,1334,NW Division & Eastwood Ave,45.504572,-122.462292,1594.2466264955167
74520,1,TRANSIT_TO,7,1396,SE Division & 142nd Ave,45.5042,-122.5210605,12246.55333886262
74520,2,TRANSIT_TO,4,1381,SE Division & 122nd Ave,45.50424208791209,-122.54045093956043,10735.361487086304
74520,3,TRANSIT_TO,4,1381,SE Division & 122nd Ave,45.5044028,-122.5578341,9380.546619415307
74539,2,STOPPED_AT,4,1381,SE Division & 122nd Ave,45.504221,-122.53817,10913.13415618678
74550,1,TRANSIT_TO,7,1396,SE Division & 142nd Ave,45.50421571428571,-122.5191235952381,12397.509810978167
74550,4,DWELL_AT,2,1334,NW Division & Eastwood Ave,45.504572,-122.462292,1594.2466264955167
74550,2,DWELL_AT,4,1381,SE Division & 122nd Ave,45.504221,-122.53817,10913.13415618678
74550,3,TRANSIT_TO,4,1381,SE Division & 122nd Ave,45.5043523,-122.55237185,9806.265379629604
74580,3,TRANSIT_TO,4,1381,SE Division & 122nd Ave,45.5043018,-122.54690959999999,10231.984139843902
74580,1,TRANSIT_TO,7,1396,SE Division & 142nd Ave,45.50423142857143,-122.5171866904762,12548.466283093712
74580,2,TRANSIT_TO,5,1387,SE Division & 130th Ave,45.504202210526316,-122.53505794736841,11155.670852074172
74580,4,DWELL_AT,2,1334,NW Division & Eastwood Ave,45.504572,-122.462292,1594.2466264955167
74583,1,STOPPED_AT,7,1396,SE Division & 142nd Ave,45.504233,-122.516993,12563.561930305266
74610,1,TRANSIT_TO,8,1416,SE Division & 162nd Ave,45.504290624999996,-122.514386875,12766.761888104906
74610,3,TRANSIT_TO,4,1381,SE Division & 122nd Ave,45.5042513,-122.54144735,10657.7029000582
74610,4,TRANSIT_TO,3,1360,SE Division & 101st Ave,45.504525123595506,-122.4930375730337,3990.2954993871344
74610,2,TRANSIT_TO,5,1387,SE Division & 130th Ave,45.50417536842105,-122.53061215789474,11502.15184619902
74616,2,STOPPED_AT,5,1387,SE Division & 130th Ave,45.50417,-122.529723,11571.44804502399
74628,3,STOPPED_AT,4,1381,SE Division & 122nd Ave,45.504221,-122.53817,10913.13415618678
74640,4,TRANSIT_TO,3,1360,SE Division & 101st Ave,45.50447489887641,-122.52597925842697,6557.490720342439
74640,1,TRANSIT_TO,8,1416,SE Division & 162nd Ave,45.504405875,-122.509174625,13173.161803704184
74640,3,TRANSIT_TO,5,1387,SE Division & 130th Ave,45.50422015,-122.53802921666666,10924.106054334066
74640,2,TRANSIT_TO,6,1390,SE Division & 135th Ave,45.5041696440678,-122.52917783050847,11613.934094460801
74670,4,TRANSIT_TO,3,1360,SE Division & 101st Ave,45.504424674157306,-122.55892094382023,9124.685941297745
74670,3,TRANSIT_TO,5,1387,SE Division & 130th Ave,45.50419465,-122.53380571666666,11253.26299875267
74670,1,TRANSIT_TO,8,1416,SE Division & 162nd Ave,45.504521125,-122.503962375,13579.561719303463
74670,2,TRANSIT_TO,6,1390,SE Division & 135th Ave,45.50416811864407,-122.52684138983051,11796.017163475708
74671,4,STOPPED_AT,3,1360,SE Division & 101st Ave,45.504423,-122.560019,9210.259115329587
74692,2,STOPPED_AT,6,1390,SE Division & 135th Ave,45.504167,-122.525128,11929.544747419974
74699,3,STOPPED_AT,5,1387,SE Division & 130th Ave,45.50417,-122.529723,11571.44804502399
74700,1,TRANSIT_TO,8,1416,SE Division & 162nd Ave,45.504636375000004,-122.498750125,13985.961634902742
74700,2,TRANSIT_TO,7,1396,SE Division & 142nd Ave,45.50416993333334,-122.52476644444444,11957.723288881542
74700,3,DWELL_AT,5,1387,SE Division & 130th Ave,45.50417,-122.529723,11571.44804502399
74700,4,TRANSIT_TO,4,1381,SE Division & 122nd Ave,45.50438664,-122.55608618,9516.776622683881
74715,1,STOPPED_AT,8,1416,SE Division & 162nd Ave,45.504694,-122.496144,14189.161592702381
74730,1,TRANSIT_TO,9,1423,SE Division & 174th Ave,45.50469425,-122.49555575,14235.004543010138
74730,2,TRANSIT_TO,7,1396,SE Division & 142nd Ave,45.50419193333333,-122.52205477777777,12169.062349843307
74730,3,TRANSIT_TO,6,1390,SE Division & 135th Ave,45.5041677,-122.52620016666667,11845.988850194244
74730,4,TRANSIT_TO,4,1381,SE Division & 122nd Ave,45.504346240000004,-122.55171638,9857.35163085532
74737,3,STOPPED_AT,6,1390,SE Division & 135th Ave,45.504167,-122.525128,11929.544747419974
74760,2,TRANSIT_TO,7,1396,SE Division & 142nd Ave,45.50421393333333,-122.51934311111111,12380.40141080507
74760,1,TRANSIT_TO,9,1423,SE Division & 174th Ave,45.50469675,-122.48967325000001,14693.434046087697
74760,4,TRANSIT_TO,4,1381,SE Division & 122nd Ave,45.50430584,-122.54734658,10197.926639026758
74760,3,TRANSIT_TO,7,1396,SE Division & 142nd Ave,45.504182956043955,-122.5231612967033,12082.823626798836
74786,2,STOPPED_AT,7,1396,SE Division & 142nd Ave,45.504233,-122.516993,12563.561930305266
74787,1,STOPPED_AT,9,1423,SE Division & 174th Ave,45.504699,-122.484379,15106.020598857502
74790,3,TRANSIT_TO,7,1396,SE Division & 142nd Ave,45.50420471428571,-122.52047942857142,12291.840280497283
74790,4,TRANSIT_TO,4,1381,SE Division & 122nd Ave,45.504265440000005,-122.54297677999999,10538.501647198196
74790,1,DWELL_AT,9,1423,SE Division & 174th Ave,45.504699,-122.484379,15106.020598857502
74790,2,DWELL_AT,7,1396,SE Division & 142nd Ave,45.504233,-122.516993,12563.561930305266
74820,3,TRANSIT_TO,7,1396,SE Division & 142nd Ave,45.50422647252747,-122.51779756043956,12500.856934195732
74820,4,TRANSIT_TO,4,1381,SE Division & 122nd Ave,45.50422504,-122.53860698,10879.076655369636
74820,1,TRANSIT_TO,10,1442,SE Division & 26th Ave,45.504754081967214,-122.53792314754098,19278.770126138315
74820,2,TRANSIT_TO,8,1416,SE Division & 162nd Ave,45.50438666666667,-122.51004333333333,13105.428484437638
74823,4,STOPPED_AT,4,1381,SE Division & 122nd Ave,45.504221,-122.53817,10913.13415618678
74829,3,STOPPED_AT,7,1396,SE Division & 142nd Ave,45.504233,-122.516993,12563.561930305266
74850,3,TRANSIT_TO,8,1416,SE Division & 162nd Ave,45.50433032222222,-122.51259154444445,12906.744081255769
74850,4,DWELL_AT,4,1381,SE Division & 122nd Ave,45.504221,-122.53817,10913.13415618678
74850,2,TRANSIT_TO,8,1416,SE Division & 162nd Ave,45.50454033333333,-122.50309366666667,13647.29503857001
74850,1,TRANSIT_TO,10,1442,SE Division & 26th Ave,45.50483277049181,-122.61441478688525,25239.84087939662
74860,1,STOPPED_AT,10,1442,SE Division & 26th Ave,45.504859,-122.639912,27226.864463816055
74880,3,TRANSIT_TO,8,1416,SE Division & 162nd Ave,45.504483988888886,-122.50564187777778,13448.61063538814
74880,4,TRANSIT_TO,5,1387,SE Division & 130th Ave,45.504209100000004,-122.53619903333333,11066.740730248795
74880,1,TRANSIT_TO,11,1448,SE Division & 30th Ave,45.504853137931036,-122.63805027586207,27371.951653584714
74880,2,STOPPED_AT,8,1416,SE Division & 162nd Ave,45.504694,-122.496144,14189.161592702381
74899,1,STOPPED_AT,11,1448,SE Division & 30th Ave,45.504842,-122.634513,27647.61731414517
74910,2,TRANSIT_TO,9,1423,SE Division & 174th Ave,45.504698000000005,-122.486732,14922.648797626478
74910,1,TRANSIT_TO,12,1452,SE Division & 34th Ave,45.5048405,-122.63414225,27676.510663403882
74910,3,TRANSIT_TO,8,1416,SE Division & 162nd Ave,45.504637655555555,-122.4986922111111,13990.477189520512
74910,4,TRANSIT_TO,5,1387,SE Division & 130th Ave,45.504183600000005,-122.53197553333334,11395.8976746674
74916,2,STOPPED_AT,9,1423,SE Division & 174th Ave,45.504699,-122.484379,15106.020598857502
74921,3,STOPPED_AT,8,1416,SE Division & 162nd Ave,45.504694,-122.496144,14189.161592702381
74926,4,STOPPED_AT,5,1387,SE Division & 130th Ave,45.50417,-122.529723,11571.44804502399
74940,1,TRANSIT_TO,12,1452,SE Division & 34th Ave,45.504831499999995,-122.63191775,27849.870758956153
74940,3,TRANSIT_TO,9,1423,SE Division & 174th Ave,45.504695500000004,-122.4926145,14464.219294548917
74940,2,TRANSIT_TO,10,1442,SE Division & 26th Ave,45.504779,-122.5621455,21166.44253133678
74940,4,DWELL_AT,5,1387,SE Division & 130th Ave,45.50417,-122.529723,11571.44804502399
74955,2,STOPPED_AT,10,1442,SE Division & 26th Ave,45.504859,-122.639912,27226.864463816055
74965,1,STOPPED_AT,12,1452,SE Division & 34th Ave,45.504824,-122.630064,27994.337505249714
74970,4,TRANSIT_TO,6,1390,SE Division & 135th Ave,45.50416916393443,-122.5284424262295,11671.245486675329
74970,2,TRANSIT_TO,11,1448,SE Division & 30th Ave,45.504856424242426,-122.63909396969697,27290.614895684103
74970,1,DWELL_AT,12,1452,SE Division & 34th Ave,45.504824,-122.630064,27994.337505249714
74970,3,TRANSIT_TO,9,1423,SE Division & 174th Ave,45.504698000000005,-122.486732,14922.648797626478
74982,3,STOPPED_AT,9,1423,SE Division & 174th Ave,45.504699,-122.484379,15106.020598857502
75000,4,TRANSIT_TO,6,1390,SE Division & 135th Ave,45.50416768852459,-122.52618259016393,11847.358619001223
75000,2,TRANSIT_TO,11,1448,SE Division & 30th Ave,45.504848696969695,-122.63663987878788,27481.866191288245
75000,1,TRANSIT_TO,13,1459,SE Division & Cesar Chavez Blvd,45.504835192982455,-122.62649038596491,28272.83510579211
75000,3,TRANSIT_TO,10,1442,SE Division & 26th Ave,45.50473243283582,-122.51687843283582,17638.734242281676
75014,4,STOPPED_AT,6,1390,SE Division & 135th Ave,45.504167,-122.525128,11929.544747419974
75026,2,STOPPED_AT,11,1448,SE Division & 30th Ave,45.504842,-122.634513,27647.61731414517
75028,1,STOPPED_AT,13,1459,SE Division & Cesar Chavez Blvd,45.504846,-122.62304,28541.729340798563
75030,2,TRANSIT_TO,12,1452,SE Division & 34th Ave,45.5048417,-122.63443885,27653.39598399691
75030,4,TRANSIT_TO,7,1396,SE Division & 142nd Ave,45.50417506666667,-122.52413372222222,12007.035736439288
75030,3,TRANSIT_TO,10,1442,SE Division & 26th Ave,45.50480407462687,-122.58652007462686,23065.97776390491
75030,1,DWELL_AT,13,1459,SE Division & Cesar Chavez Blvd,45.504846,-122.62304,28541.729340798563
75053,3,STOPPED_AT,10,1442,SE Division & 26th Ave,45.504859,-122.639912,27226.864463816055
75060,4,TRANSIT_TO,7,1396,SE Division & 142nd Ave,45.50419706666667,-122.52142205555555,12218.374797401051
75060,2,TRANSIT_TO,12,1452,SE Division & 34th Ave,45.504832699999994,-122.63221435,27826.756079549185
75060,3,TRANSIT_TO,11,1448,SE Division & 30th Ave,45.50485869642858,-122.6398155892857,27234.377907571932
75060,1,TRANSIT_TO,14,1482,SE Division & 67th Ave,45.505096,-122.61112708333333,29470.524162730573
75089,2,STOPPED_AT,12,1452,SE Division & 34th Ave,45.504824,-122.630064,27994.337505249714
75090,3,TRANSIT_TO,11,1448,SE Division & 30th Ave,45.50484958928571,-122.63692326785714,27459.781220248242
75090,2,DWELL_AT,12,1452,SE Division & 34th Ave,45.504824,-122.630064,27994.337505249714
75090,4,TRANSIT_TO,7,1396,SE Division & 142nd Ave,45.504219066666664,-122.51871038888889,12429.713858362815
75090,1,TRANSIT_TO,14,1482,SE Division & 67th Ave,45.505396,-122.59683158333333,30585.077949048988
75095,1,STOPPED_AT,14,1482,SE Division & 67th Ave,45.505446,-122.594449,30770.83691343539
75109,4,STOPPED_AT,7,1396,SE Division & 142nd Ave,45.504233,-122.516993,12563.561930305266
75115,3,STOPPED_AT,11,1448,SE Division & 30th Ave,45.504842,-122.634513,27647.61731414517
75120,1,TRANSIT_TO,15,1499,SE Division & 82nd Ave,45.505342533333334,-122.5903658,31089.249766538436
75120,3,TRANSIT_TO,12,1452,SE Division & 34th Ave,45.5048412173913,-122.6343195652174,27662.692105062757
75120,4,TRANSIT_TO,8,1416,SE Division & 162nd Ave,45.504267148148145,-122.51544862962963,12683.97672011246
75120,2,TRANSIT_TO,13,1459,SE Division & Cesar Chavez Blvd,45.50483463333333,-122.62666906666666,28258.91022576499
75150,1,TRANSIT_TO,15,1499,SE Division & 82nd Ave,45.50514853333333,-122.5827098,31686.273866106647
75150,2,TRANSIT_TO,13,1459,SE Division & Cesar Chavez Blvd,45.50484563333333,-122.62315706666666,28532.606143539415
75150,3,TRANSIT_TO,12,1452,SE Division & 34th Ave,45.504833391304345,-122.6323852173913,27813.440014238648
75150,4,TRANSIT_TO,8,1416,SE Division & 162nd Ave,45.50443788888889,-122.50772677777778,13286.050669148428
75151,2,STOPPED_AT,13,1459,SE Division & Cesar Chavez Blvd,45.504846,-122.62304,28541.729340798563
75164,1,STOPPED_AT,15,1499,SE Division & 82nd Ave,45.505058,-122.579137,31964.885112571814
75180,1,TRANSIT_TO,16,1501,SE Division & 85th Ave,45.50502447619048,-122.57877947619048,31992.99548502545
75180,2,TRANSIT_TO,14,1482,SE Division & 67th Ave,45.505346,-122.59921416666667,30399.318984662583
75180,4,TRANSIT_TO,8,1416,SE Division & 162nd Ave,45.50460862962963,-122.50000492592592,13888.124618184396
75180,3,TRANSIT_TO,12,1452,SE Division & 34th Ave,45.50482556521739,-122.63045086956522,27964.187923414534
75185,2,STOPPED_AT,14,1482,SE Division & 67th Ave,45.505446,-122.594449,30770.83691343539
75186,3,STOPPED_AT,12,1452,SE Division & 34th Ave,45.504824,-122.630064,27994.337505249714
75195,4,STOPPED_AT,8,1416,SE Division & 162nd Ave,45.504694,-122.496144,14189.161592702381
75210,1,TRANSIT_TO,16,1501,SE Division & 85th Ave,45.504856857142855,-122.57699185714286,32133.547347293636
75210,4,TRANSIT_TO,9,1423,SE Division & 174th Ave,45.50469440983607,-122.4951796557377,14264.31397025608
75210,3,TRANSIT_TO,13,1459,SE Division & Cesar Chavez Blvd,45.50483193442623,-122.62753075409836,28191.757511513235
75210,2,TRANSIT_TO,15,1499,SE Division & 82nd Ave,45.50532514754098,-122.58967968852458,31142.753565625422
75237,1,STOPPED_AT,16,1501,SE Division & 85th Ave,45.504706,-122.575383,32260.044023335002
75240,1,DWELL_AT,16,1501,SE Division & 85th Ave,45.504706,-122.575383,32260.044023335002
75240,2,TRANSIT_TO,15,1499,SE Division & 82nd Ave,45.50513432786885,-122.58214919672132,31729.990384872846
75240,3,TRANSIT_TO,13,1459,SE Division & Cesar Chavez Blvd,45.50484275409836,-122.62407632786885,28460.96661096349
75240,4,TRANSIT_TO,9,1423,SE Division & 174th Ave,45.50469686885246,-122.48939359016394,14715.22823557827
75249,3,STOPPED_AT,13,1459,SE Division & Cesar Chavez Blvd,45.504846,-122.62304,28541.729340798563
75252,2,STOPPED_AT,15,1499,SE Division & 82nd Ave,45.505058,-122.579137,31964.885112571814
75266,4,STOPPED_AT,9,1423,SE Division & 174th Ave,45.504699,-122.484379,15106.020598857502
75270,3,TRANSIT_TO,14,1482,SE Division & 67th Ave,45.50500005405405,-122.61569906756758,29114.06777161072
75270,2,TRANSIT_TO,16,1501,SE Division & 85th Ave,45.504992372881354,-122.57843710169492,32019.914740002238
75270,4,DWELL_AT,9,1423,SE Division & 174th Ave,45.504699,-122.484379,15106.020598857502
75270,1,TRANSIT_TO,17,3007,NW Irving & 5th,45.50910881111111,-122.59436085555556,33817.640739819464
75300,1,TRANSIT_TO,17,3007,NW Irving & 5th,45.51687847777778,-122.6278511888889,36566.34082773322
75300,3,TRANSIT_TO,14,1482,SE Division & 67th Ave,45.5052432972973,-122.60410812162162,30017.760030787813
75300,4,TRANSIT_TO,10,1442,SE Division & 26th Ave,45.50473366666667,-122.51807781666668,17732.20343626519
75300,2,TRANSIT_TO,16,1501,SE Division & 85th Ave,45.50481338983051,-122.57652828813559,32169.995542085217
75318,2,STOPPED_AT,16,1501,SE Division & 85th Ave,45.504706,-122.575383,32260.044023335002
75325,3,STOPPED_AT,14,1482,SE Division & 67th Ave,45.505446,-122.594449,30770.83691343539
75330,1,TRANSIT_TO,17,3007,NW Irving & 5th,45.52464814444445,-122.66134152222223,39315.04091564698
75330,2,TRANSIT_TO,17,3007,NW Irving & 5th,45.505223977777774,-122.5776156888889,32443.290695862586
75330,3,DWELL_AT,14,1482,SE Division & 67th Ave,45.505446,-122.594449,30770.83691343539
75330,4,TRANSIT_TO,10,1442,SE Division & 26th Ave,45.50481366666667,-122.59584431666667,23792.625368744466
75343,1,STOPPED_AT,17,3007,NW Irving & 5th,45.528015,-122.675854,40506.14428707628
75347,4,STOPPED_AT,10,1442,SE Division & 26th Ave,45.504859,-122.639912,27226.864463816055
75360,1,TRANSIT_TO,18,3398,SW Lincoln & 1st,45.52668353333333,-122.67611113333334,40655.54593707506
75360,4,DWELL_AT,10,1442,SE Division & 26th Ave,45.504859,-122.639912,27226.864463816055
75360,3,TRANSIT_TO,15,1499,SE Division & 82nd Ave,45.50528816949152,-122.58822038983051,31256.551435118003
75360,2,TRANSIT_TO,17,3007,NW Irving & 5th,45.51299364444444,-122.61110602222223,35191.990783776346
75388,1,STOPPED_AT,18,3398,SW Lincoln & 1st,45.508043,-122.679711,42747.16903705809
75390,4,TRANSIT_TO,11,1448,SE Division & 30th Ave,45.50484325925925,-122.63491292592592,27616.450436343013
75390,2,TRANSIT_TO,17,3007,NW Irving & 5th,45.52076331111111,-122.64459635555556,37940.6908716901
75390,1,DWELL_AT,18,3398,SW Lincoln & 1st,45.508043,-122.679711,42747.16903705809
75390,3,TRANSIT_TO,15,1499,SE Division & 82nd Ave,45.50509088135593,-122.58043462711865,31863.69458722127
75392,4,STOPPED_AT,11,1448,SE Division & 30th Ave,45.504842,-122.634513,27647.61731414517
75395,3,STOPPED_AT,15,1499,SE Division & 82nd Ave,45.505058,-122.579137,31964.885112571814
75418,2,STOPPED_AT,17,3007,NW Irving & 5th,45.528015,-122.675854,40506.14428707628
75420,3,TRANSIT_TO,16,1501,SE Division & 85th Ave,45.50498173333333,-122.57832363333334,32028.83620990384
75420,1,TRANSIT_TO,19,7797,SW 6th & Harvey Milk,45.5136278,-122.67876199999999,43372.55727094216
75420,2,DWELL_AT,17,3007,NW Irving & 5th,45.528015,-122.675854,40506.14428707628
75420,4,TRANSIT_TO,12,1452,SE Division & 34th Ave,45.5048354,-122.6328817,27774.748050883503
75437,1,STOPPED_AT,19,7797,SW 6th & Harvey Milk,45.520931,-122.677521,44190.37265371364
75450,2,TRANSIT_TO,18,3398,SW Lincoln & 1st,45.52069193333334,-122.67726823333334,41327.85336206961
75450,4,TRANSIT_TO,12,1452,SE Division & 34th Ave,45.5048264,-122.6306572,27948.108146435774
75450,3,TRANSIT_TO,16,1501,SE Division & 85th Ave,45.504805733333335,-122.57644663333333,32176.415665285433
75450,1,TRANSIT_TO,20,7800,SW 6th & Taylor,45.520857066666665,-122.67756088888889,44199.16147149469
75458,4,STOPPED_AT,12,1452,SE Division & 34th Ave,45.504824,-122.630064,27994.337505249714
75467,3,STOPPED_AT,16,1501,SE Division & 85th Ave,45.504706,-122.575383,32260.044023335002
75480,2,TRANSIT_TO,18,3398,SW Lincoln & 1st,45.510705933333334,-122.67919673333333,42448.365737060514
75480,3,DWELL_AT,16,1501,SE Division & 85th Ave,45.504706,-122.575383,32260.044023335002
75480,1,TRANSIT_TO,20,7800,SW 6th & Taylor,45.519748066666665,-122.67815922222222,44330.99373821043
75480,4,TRANSIT_TO,13,1459,SE Division & Cesar Chavez Blvd,45.504836,-122.62623272727274,28292.91487009454
75488,2,STOPPED_AT,18,3398,SW Lincoln & 1st,45.508043,-122.679711,42747.16903705809
75495,4,STOPPED_AT,13,1459,SE Division & Cesar Chavez Blvd,45.504846,-122.62304,28541.729340798563
75510,3,TRANSIT_TO,17,3007,NW Irving & 5th,45.515583533333334,-122.62226946666667,36108.224146414264
75510,1,TRANSIT_TO,20,7800,SW 6th & Taylor,45.518639066666665,-122.67875755555555,44462.82600492617
75510,4,TRANSIT_TO,14,1482,SE Division & 67th Ave,45.504990827586205,-122.61613872413793,29079.789789366074
75510,2,TRANSIT_TO,19,7797,SW 6th & Harvey Milk,45.5119094,-122.679054,43180.130122054754
75531,2,STOPPED_AT,19,7797,SW 6th & Harvey Milk,45.520931,-122.677521,44190.37265371364
75532,4,STOPPED_AT,14,1482,SE Division & 67th Ave,45.505446,-122.594449,30770.83691343539
75538,1,STOPPED_AT,20,7800,SW 6th & Taylor,45.517604,-122.679316,44585.86945386086
75540,2,TRANSIT_TO,20,7800,SW 6th & Taylor,45.52082367741935,-122.67757890322581,44203.13061500871
75540,4,DWELL_AT,14,1482,SE Division & 67th Ave,45.505446,-122.594449,30770.83691343539
75540,1,DWELL_AT,20,7800,SW 6th & Taylor,45.517604,-122.679316,44585.86945386086
75540,3,TRANSIT_TO,17,3007,NW Irving & 5th,45.52723803333333,-122.67250496666666,40231.2742782849
75542,3,STOPPED_AT,17,3007,NW Irving & 5th,45.528015,-122.675854,40506.14428707628
75570,1,TRANSIT_TO,21,9263,SE Division & 148th Ave,45.51310874576271,-122.62198176271187,49081.363148111814
75570,3,TRANSIT_TO,18,3398,SW Lincoln & 1st,45.523022000000005,-122.67681825,41066.40047457173
75570,4,TRANSIT_TO,15,1499,SE Division & 82nd Ave,45.505161466666664,-122.5832202,31646.472259468766
75570,2,TRANSIT_TO,20,7800,SW 6th & Taylor,45.5197504516129,-122.67815793548387,44330.710227959426
75578,4,STOPPED_AT,15,1499,SE Division & 82nd Ave,45.505058,-122.579137,31964.885112571814
75600,3,TRANSIT_TO,18,3398,SW Lincoln & 1st,45.513036,-122.67874675,42186.912849562636
75600,1,TRANSIT_TO,21,9263,SE Division & 148th Ave,45.50636586440678,-122.53598040677967,55824.60368948824
75600,2,TRANSIT_TO,20,7800,SW 6th & Taylor,45.51867722580645,-122.67873696774194,44458.28984091015
75600,4,TRANSIT_TO,16,1501,SE Division & 85th Ave,45.50496089655172,-122.5781014137931,32046.308260368554
75609,1,STOPPED_AT,21,9263,SE Division & 148th Ave,45.504343,-122.51018,57847.57585190117
75615,3,STOPPED_AT,18,3398,SW Lincoln & 1st,45.508043,-122.679711,42747.16903705809
75621,4,STOPPED_AT,16,1501,SE Division & 85th Ave,45.504706,-122.575383,32260.044023335002
75630,3,DWELL_AT,18,3398,SW Lincoln & 1st,45.508043,-122.679711,42747.16903705809
75630,1,TRANSIT_TO,22,9300,NW 6th & Flanders,45.50695635555555,-122.53050078888889,59457.35080615059
75630,2,STOPPED_AT,20,7800,SW 6th & Taylor,45.517604,-122.679316,44585.86945386086
75630,4,DWELL_AT,16,1501,SE Division & 85th Ave,45.504706,-122.575383,32260.044023335002
75660,3,TRANSIT_TO,19,7797,SW 6th & Harvey Milk,45.5196422,-122.67774,44046.05229204809
75660,4,TRANSIT_TO,17,3007,NW Irving & 5th,45.5093678,-122.5954772,33909.26407608326
75660,2,TRANSIT_TO,21,9263,SE Division & 148th Ave,45.512741633333334,-122.61729946666667,49448.49513314231
75660,1,TRANSIT_TO,22,9300,NW 6th & Flanders,45.51408368888889,-122.58592112222222,63847.64613592173
75663,3,STOPPED_AT,19,7797,SW 6th & Harvey Milk,45.520931,-122.677521,44190.37265371364
75690,4,TRANSIT_TO,17,3007,NW Irving & 5th,45.51713746666667,-122.62896753333334,36657.964163997014
75690,3,TRANSIT_TO,20,7800,SW 6th & Taylor,45.52023465116279,-122.67789669767441,44273.151053744456
75690,2,TRANSIT_TO,21,9263,SE Division & 148th Ave,45.506111133333334,-122.53273146666668,56079.348332162466
75690,1,TRANSIT_TO,22,9300,NW 6th & Flanders,45.521211022222225,-122.64134145555555,68237.94146569287
75698,2,STOPPED_AT,21,9263,SE Division & 148th Ave,45.504343,-122.51018,57847.57585190117
75709,1,STOPPED_AT,22,9300,NW 6th & Flanders,45.525725,-122.676441,71018.4618412146
75720,1,TRANSIT_TO,23,9302,NW 5th & Hoyt,45.52605283333334,-122.67630583333333,71056.4055136811
75720,3,TRANSIT_TO,20,7800,SW 6th & Taylor,45.51907406976744,-122.67852286046512,44411.11505379581
75720,4,TRANSIT_TO,17,3007,NW Irving & 5th,45.524907133333336,-122.66245786666667,39406.66425191077
75720,2,TRANSIT_TO,22,9300,NW 6th & Flanders,45.51030191803279,-122.55651503278689,61518.15063580819
75732,4,STOPPED_AT,17,3007,NW Irving & 5th,45.528015,-122.675854,40506.14428707628
75745,1,STOPPED_AT,23,9302,NW 5th & Hoyt,45.527692,-122.67563,71246.12387601363
75750,1,TRANSIT_TO,24,9425,NW Division & Angeline Ave,45.52732503174603,-122.672033,71529.33977736975
75750,3,TRANSIT_TO,20,7800,SW 6th & Taylor,45.517913488372095,-122.67914902325582,44549.07905384716
75750,2,TRANSIT_TO,22,9300,NW 6th & Flanders,45.52081765573771,-122.63828273770491,67995.63554858528
75750,4,DWELL_AT,17,3007,NW Irving & 5th,45.528015,-122.675854,40506.14428707628
75758,3,STOPPED_AT,20,7800,SW 6th & Taylor,45.517604,-122.679316,44585.86945386086
75764,2,STOPPED_AT,22,9300,NW 6th & Flanders,45.525725,-122.676441,71018.4618412146
75780,1,TRANSIT_TO,24,9425,NW Division & Angeline Ave,45.51631598412698,-122.56412300000001,80025.81681805331
75780,4,TRANSIT_TO,18,3398,SW Lincoln & 1st,45.522467222222225,-122.67692538888889,41128.651162071226
75780,3,TRANSIT_TO,21,9263,SE Division & 148th Ave,45.515393833333334,-122.65112666666667,46796.15385353425
75780,2,TRANSIT_TO,23,9302,NW 5th & Hoyt,45.526249533333335,-122.67622473333333,71079.171717161
75802,2,STOPPED_AT,23,9302,NW 5th & Hoyt,45.527692,-122.67563,71246.12387601363
75810,2,DWELL_AT,23,9302,NW 5th & Hoyt,45.527692,-122.67563,71246.12387601363
75810,4,TRANSIT_TO,18,3398,SW Lincoln & 1st,45.51580988888889,-122.67821105555555,41875.659412065164
75810,3,TRANSIT_TO,21,9263,SE Division & 148th Ave,45.508763333333334,-122.56655866666667,53427.0070525544
75810,1,TRANSIT_TO,24,9425,NW Division & Angeline Ave,45.505306936507935,-122.456213,88522.29385873688
75812,1,STOPPED_AT,24,9425,NW Division & Angeline Ave,45.504573,-122.449019,89088.72566144912
75830,3,STOPPED_AT,21,9263,SE Division & 148th Ave,45.504343,-122.51018,57847.57585190117
75840,1,TRANSIT_TO,25,10613,SE Division & 43rd Ave,45.50492346666667,-122.52806486666667,95248.94783373174
75840,4,TRANSIT_TO,18,3398,SW Lincoln & 1st,45.50915255555556,-122.67949672222223,42622.6676620591
75840,2,TRANSIT_TO,24,9425,NW Division & Angeline Ave,45.5186845974026,-122.58734,78197.7869093002
75840,3,TRANSIT_TO,22,9300,NW 6th & Flanders,45.504818155555554,-122.51387468888889,58140.262207219246
75845,4,STOPPED_AT,18,3398,SW Lincoln & 1st,45.508043,-122.679711,42747.16903705809
75856,1,STOPPED_AT,25,10613,SE Division & 43rd Ave,45.505324,-122.618403,102289.20174491189
75870,4,DWELL_AT,18,3398,SW Lincoln & 1st,45.508043,-122.679711,42747.16903705809
75870,3,TRANSIT_TO,22,9300,NW 6th & Flanders,45.51194548888889,-122.56929502222222,62530.55753699039
75870,1,TRANSIT_TO,26,11486,SW 6th & Columbia,45.5071126,-122.6309414,103286.28045879987
75870,2,TRANSIT_TO,24,9425,NW Division & Angeline Ave,45.50967719480519,-122.49905000000001,85149.44994258674
75887,2,STOPPED_AT,24,9425,NW Division & Angeline Ave,45.504573,-122.449019,89088.72566144912
75894,1,STOPPED_AT,26,11486,SW 6th & Columbia,45.514267,-122.681095,107274.59531435183
75900,2,DWELL_AT,24,9425,NW Division & Angeline Ave,45.504573,-122.449019,89088.72566144912
75900,3,TRANSIT_TO,22,9300,NW 6th & Flanders,45.51907282222222,-122.62471535555555,66920.85286676153
75900,1,DWELL_AT,26,11486,SW 6th & Columbia,45.514267,-122.681095,107274.59531435183
75900,4,TRANSIT_TO,19,7797,SW 6th & Harvey Milk,45.518783,-122.677886,43949.83871760438
75905,4,STOPPED_AT,19,7797,SW 6th & Harvey Milk,45.520931,-122.677521,44190.37265371364
75928,3,STOPPED_AT,22,9300,NW 6th & Flanders,45.525725,-122.676441,71018.4618412146
75930,1,TRANSIT_TO,27,13298,SE Division & SE Division St MAX Station,45.50999683050847,-122.63101459322034,111205.86611804187
75930,3,DWELL_AT,22,9300,NW 6th & Flanders,45.525725,-122.676441,71018.4618412146
75930,4,TRANSIT_TO,20,7800,SW 6th & Taylor,45.52042690909091,-122.67779296969697,44250.296411311705
75930,2,TRANSIT_TO,25,10613,SE Division & 43rd Ave,45.50484385245902,-122.51010831147542,93849.55310138651
75960,4,TRANSIT_TO,20,7800,SW 6th & Taylor,45.51891463636363,-122.67860887878788,44430.067684105896
75960,2,TRANSIT_TO,25,10613,SE Division & 43rd Ave,45.505213196721314,-122.59341191803279,100341.59051948295
75960,1,TRANSIT_TO,27,13298,SE Division & SE Division St MAX Station,45.5050697118644,-122.57322950847458,115741.94781460732
75960,3,TRANSIT_TO,23,9302,NW 5th & Hoyt,45.52598726666667,-122.67633286666667,71048.8167791878
75963,1,STOPPED_AT,27,13298,SE Division & SE Division St MAX Station,45.504577,-122.567451,116195.55598426386
75969,2,STOPPED_AT,25,10613,SE Division & 43rd Ave,45.505324,-122.618403,102289.20174491189
75986,4,STOPPED_AT,20,7800,SW 6th & Taylor,45.517604,-122.679316,44585.86945386086
75990,1,TRANSIT_TO,28,13733,South Waterfront/S Moody,45.50409251612903,-122.59325551612903,118207.28966389931
75990,2,TRANSIT_TO,26,11486,SW 6th & Columbia,45.50739773913043,-122.63294027536232,103445.23503637622
75990,3,TRANSIT_TO,23,9302,NW 5th & Hoyt,45.526970766666665,-122.67592736666667,71162.64779658732
75990,4,DWELL_AT,20,7800,SW 6th & Taylor,45.517604,-122.679316,44585.86945386086
76012,3,STOPPED_AT,23,9302,NW 5th & Hoyt,45.527692,-122.67563,71246.12387601363
76020,3,DWELL_AT,23,9302,NW 5th & Hoyt,45.527692,-122.67563,71246.12387601363
76020,2,TRANSIT_TO,26,11486,SW 6th & Columbia,45.511286,-122.66019766666666,105612.79745787184
76020,4,TRANSIT_TO,21,9263,SE Division & 148th Ave,45.51586265656565,-122.65710622222223,46327.305647542926
76020,1,TRANSIT_TO,28,13733,South Waterfront/S Moody,45.50346058064516,-122.62691358064517,120831.29011559773
76043,2,STOPPED_AT,26,11486,SW 6th & Columbia,45.514267,-122.681095,107274.59531435183
76050,2,DWELL_AT,26,11486,SW 6th & Columbia,45.514267,-122.681095,107274.59531435183
76050,4,TRANSIT_TO,21,9263,SE Division & 148th Ave,45.51184417171717,-122.60585288888889,50346.00455603999
76050,1,TRANSIT_TO,28,13733,South Waterfront/S Moody,45.50282864516129,-122.66057164516128,123455.29056729614
76050,3,TRANSIT_TO,24,9425,NW Division & Angeline Ave,45.52460946666667,-122.6454152,73625.13744740502
76060,1,STOPPED_AT,28,13733,South Waterfront/S Moody,45.502618,-122.671791,124329.95738452894
76080,2,TRANSIT_TO,27,13298,SE Division & SE Division St MAX Station,45.511207,-122.64520742105263,110091.74078906089
76080,4,TRANSIT_TO,21,9263,SE Division & 148th Ave,45.507825686868685,-122.55459955555555,54364.70346453705
76080,3,TRANSIT_TO,24,9425,NW Division & Angeline Ave,45.51304996666667,-122.5321097,82546.43834012278
76080,1,TRANSIT_TO,29,13773,OMSI/SE Water,45.50338909677419,-122.67011951612903,124485.90464637447
76102,3,STOPPED_AT,24,9425,NW Division & Angeline Ave,45.504573,-122.449019,89088.72566144912
76106,4,STOPPED_AT,21,9263,SE Division & 148th Ave,45.504343,-122.51018,57847.57585190117
76110,1,TRANSIT_TO,29,13773,OMSI/SE Water,45.50467425806452,-122.66733370967742,124745.81674945036
76110,4,DWELL_AT,21,9263,SE Division & 148th Ave,45.504343,-122.51018,57847.57585190117
76110,3,DWELL_AT,24,9425,NW Division & Angeline Ave,45.504573,-122.449019,89088.72566144912
76110,2,TRANSIT_TO,27,13298,SE Division & SE Division St MAX Station,45.506107,-122.58539478947368,114786.98324690932
76119,2,STOPPED_AT,27,13298,SE Division & SE Division St MAX Station,45.504577,-122.567451,116195.55598426386
76140,4,TRANSIT_TO,22,9300,NW 6th & Flanders,45.50760466101695,-122.53554184745764,59856.694053660845
76140,3,DWELL_AT,24,9425,NW Division & Angeline Ave,45.504573,-122.449019,89088.72566144912
76140,2,DWELL_AT,27,13298,SE Division & SE Division St MAX Station,45.504577,-122.567451,116195.55598426386
76140,1,TRANSIT_TO,29,13773,OMSI/SE Water,45.50595941935484,-122.66454790322581,125005.72885252626
76155,1,STOPPED_AT,29,13773,OMSI/SE Water,45.506602,-122.663155,125135.6849040642
76170,1,TRANSIT_TO,30,13780,SW Hall & 5th,45.507075226804126,-122.66569241237113,125340.29719322121
76170,2,TRANSIT_TO,28,13733,South Waterfront/S Moody,45.503846525423725,-122.60635744067797,119228.72260809151
76170,3,TRANSIT_TO,25,10613,SE Division & 43rd Ave,45.504673133333334,-122.47160353333334,90848.78913924415
76170,4,TRANSIT_TO,22,9300,NW 6th & Flanders,45.51304076271187,-122.57781159322035,63205.22438992697
76200,4,TRANSIT_TO,22,9300,NW 6th & Flanders,45.51847686440678,-122.62008133898306,66553.75472619309
76200,3,TRANSIT_TO,25,10613,SE Division & 43rd Ave,45.50504863333333,-122.55629553333334,97449.02718097554
76200,2,TRANSIT_TO,28,13733,South Waterfront/S Moody,45.50285042372881,-122.6594116779661,123364.85891331105
76200,1,TRANSIT_TO,30,13780,SW Hall & 5th,45.5081672886598,-122.67154797938144,125812.47939896816
76207,2,STOPPED_AT,28,13733,South Waterfront/S Moody,45.502618,-122.671791,124329.95738452894
76222,3,STOPPED_AT,25,10613,SE Division & 43rd Ave,45.505324,-122.618403,102289.20174491189
76230,3,DWELL_AT,25,10613,SE Division & 43rd Ave,45.505324,-122.618403,102289.20174491189
76230,2,DWELL_AT,28,13733,South Waterfront/S Moody,45.502618,-122.671791,124329.95738452894
76230,1,TRANSIT_TO,30,13780,SW Hall & 5th,45.509259350515464,-122.67740354639174,126284.6616047151
76230,4,TRANSIT_TO,22,9300,NW 6th & Flanders,45.5239129661017,-122.66235108474577,69902.28506245922
76240,4,STOPPED_AT,22,9300,NW 6th & Flanders,45.525725,-122.676441,71018.4618412146
76254,1,STOPPED_AT,30,13780,SW Hall & 5th,45.510133,-122.682088,126662.40736931267
76260,3,TRANSIT_TO,26,11486,SW 6th & Columbia,45.50905025,-122.64452466666667,104366.44906551186
76260,1,DWELL_AT,30,13780,SW Hall & 5th,45.510133,-122.682088,126662.40736931267
76260,4,DWELL_AT,22,9300,NW 6th & Flanders,45.525725,-122.676441,71018.4618412146
76260,2,TRANSIT_TO,29,13773,OMSI/SE Water,45.5038796,-122.66905626666667,124585.10443238178
76290,1,TRANSIT_TO,31,14232,Cleveland Ave Park & Ride,45.50779066666667,-122.59438,133502.3083265923
76290,2,TRANSIT_TO,29,13773,OMSI/SE Water,45.5058716,-122.66473826666667,124987.9681921494
76290,4,TRANSIT_TO,23,9302,NW 5th & Hoyt,45.52605283333334,-122.67630583333333,71056.4055136811
76290,3,TRANSIT_TO,26,11486,SW 6th & Columbia,45.513521749999995,-122.67587066666667,106859.14585023183
76295,3,STOPPED_AT,26,11486,SW 6th & Columbia,45.514267,-122.681095,107274.59531435183
76301,2,STOPPED_AT,29,13773,OMSI/SE Water,45.506602,-122.663155,125135.6849040642
76320,2,DWELL_AT,29,13773,OMSI/SE Water,45.506602,-122.663155,125135.6849040642
76320,1,TRANSIT_TO,31,14232,Cleveland Ave Park & Ride,45.505448333333334,-122.506672,140342.20928387193
76320,3,DWELL_AT,26,11486,SW 6th & Columbia,45.514267,-122.681095,107274.59531435183
76320,4,STOPPED_AT,23,9302,NW 5th & Hoyt,45.527692,-122.67563,71246.12387601363
76350,3,TRANSIT_TO,27,13298,SE Division & SE Division St MAX Station,45.51063325,-122.6384785,110619.95556556885
76350,1,STOPPED_AT,31,14232,Cleveland Ave Park & Ride,45.503106,-122.418964,147182.11024115156
76350,4,DWELL_AT,23,9302,NW 5th & Hoyt,45.527692,-122.67563,71246.12387601363
76350,2,TRANSIT_TO,30,13780,SW Hall & 5th,45.50749445054945,-122.66794026373627,125521.55981286326
76380,2,TRANSIT_TO,30,13780,SW Hall & 5th,45.50865851648352,-122.6741819120879,126024.87491129682
76380,1,TRANSIT_TO,32,14233,Gresham Central Transit Center,45.50343751724138,-122.42438434482759,147606.13910248037
76380,4,TRANSIT_TO,24,9425,NW Division & Angeline Ave,45.521086571428576,-122.610884,76344.01010042377
76380,3,TRANSIT_TO,27,13298,SE Division & SE Division St MAX Station,45.5060910625,-122.58520787500001,114801.65587959011
76387,1,STOPPED_AT,32,14233,Gresham Central Transit Center,45.503543,-122.426109,147741.05737653954
76390,3,STOPPED_AT,27,13298,SE Division & SE Division St MAX Station,45.504577,-122.567451,116195.55598426386
76410,4,TRANSIT_TO,24,9425,NW Division & Angeline Ave,45.51007752380953,-122.50297400000001,84840.48714110734
76410,3,DWELL_AT,27,13298,SE Division & SE Division St MAX Station,45.504577,-122.567451,116195.55598426386
76410,1,TRANSIT_TO,33,14234,Gresham City Hall Park & Ride,45.50379003125,-122.42855915625,147933.96840226144
76410,2,TRANSIT_TO,30,13780,SW Hall & 5th,45.509822582417584,-122.68042356043955,126528.19000973039
76418,2,STOPPED_AT,30,13780,SW Hall & 5th,45.510133,-122.682088,126662.40736931267
76425,4,STOPPED_AT,24,9425,NW Division & Angeline Ave,45.504573,-122.449019,89088.72566144912
76440,4,DWELL_AT,24,9425,NW Division & Angeline Ave,45.504573,-122.449019,89088.72566144912
76440,2,DWELL_AT,30,13780,SW Hall & 5th,45.510133,-122.682088,126662.40736931267
76440,1,TRANSIT_TO,33,14234,Gresham City Hall Park & Ride,45.504284093749995,-122.43345946875,148319.79045370527
76440,3,TRANSIT_TO,28,13733,South Waterfront/S Moody,45.50444418644067,-122.57452489830509,116747.0408249598
76459,1,STOPPED_AT,33,14234,Gresham City Hall Park & Ride,45.504597,-122.436563,148564.14441961967
76470,4,DWELL_AT,24,9425,NW Division & Angeline Ave,45.504573,-122.449019,89088.72566144912
76470,1,TRANSIT_TO,34,14235,18000 Block SE Division,45.50460866666666,-122.44153938596492,148951.96194179164
76470,3,TRANSIT_TO,28,13733,South Waterfront/S Moody,45.50344808474576,-122.62757913559322,120883.17713017933
76470,2,TRANSIT_TO,31,14232,Cleveland Ave Park & Ride,45.50754410526316,-122.58514757894737,134222.2979010428
76495,3,STOPPED_AT,28,13733,South Waterfront/S Moody,45.502618,-122.671791,124329.95738452894
76500,1,TRANSIT_TO,34,14235,18000 Block SE Division,45.504658666666664,-122.46286675438597,150614.03703681432
76500,3,DWELL_AT,28,13733,South Waterfront/S Moody,45.502618,-122.671791,124329.95738452894
76500,4,DWELL_AT,24,9425,NW Division & Angeline Ave,45.504573,-122.449019,89088.72566144912
76500,2,TRANSIT_TO,31,14232,Cleveland Ave Park & Ride,45.50384568421053,-122.44666126315789,145022.1415178001
76506,2,STOPPED_AT,31,14232,Cleveland Ave Park & Ride,45.503106,-122.418964,147182.11024115156
76520,1,STOPPED_AT,34,14235,18000 Block SE Division,45.504692,-122.477085,151722.08710016278
76530,4,TRANSIT_TO,25,10613,SE Division & 43rd Ave,45.504645677419354,-122.465411,90366.191088881
76530,1,TRANSIT_TO,35,14236,SE Division & 168th Ave,45.50469236241611,-122.47760929530202,151762.94600495385
76530,2,DWELL_AT,31,14232,Cleveland Ave Park & Ride,45.503106,-122.418964,147182.11024115156
76530,3,DWELL_AT,28,13733,South Waterfront/S Moody,45.502618,-122.671791,124329.95738452894
76560,1,TRANSIT_TO,35,14236,SE Division & 168th Ave,45.50469417449664,-122.48023077181209,151967.2405289092
76560,2,DWELL_AT,31,14232,Cleveland Ave Park & Ride,45.503106,-122.418964,147182.11024115156
76560,3,TRANSIT_TO,29,13773,OMSI/SE Water,45.50292446153846,-122.6711266923077,124391.9364244932
76560,4,TRANSIT_TO,25,10613,SE Division & 43rd Ave,45.50500906451613,-122.547371,96753.51822604041
76586,4,STOPPED_AT,25,10613,SE Division & 43rd Ave,45.505324,-122.618403,102289.20174491189
76590,1,TRANSIT_TO,35,14236,SE Division & 168th Ave,45.50469598657718,-122.48285224832215,152171.53505286452
76590,4,DWELL_AT,25,10613,SE Division & 43rd Ave,45.505324,-122.618403,102289.20174491189
76590,3,TRANSIT_TO,29,13773,OMSI/SE Water,45.50476323076923,-122.66714084615384,124763.81066427869
76590,2,TRANSIT_TO,32,14233,Gresham Central Transit Center,45.503324500000005,-122.4225365,147461.58380884555
76620,4,TRANSIT_TO,26,11486,SW 6th & Columbia,45.50766970491803,-122.63484680327869,103596.84595984695
76620,2,STOPPED_AT,32,14233,Gresham Central Transit Center,45.503543,-122.426109,147741.05737653954
76620,1,TRANSIT_TO,35,14236,SE Division & 168th Ave,45.504697798657716,-122.48547372483222,152375.82957681987
76620,3,STOPPED_AT,29,13773,OMSI/SE Water,45.506602,-122.663155,125135.6849040642
76650,4,TRANSIT_TO,26,11486,SW 6th & Columbia,45.51206790163934,-122.66567893442623,106048.6788628502
76650,1,TRANSIT_TO,35,14236,SE Division & 168th Ave,45.50469961073825,-122.48809520134228,152580.1241007752
76650,3,DWELL_AT,29,13773,OMSI/SE Water,45.506602,-122.663155,125135.6849040642
76650,2,DWELL_AT,32,14233,Gresham Central Transit Center,45.503543,-122.426109,147741.05737653954
76665,4,STOPPED_AT,26,11486,SW 6th & Columbia,45.514267,-122.681095,107274.59531435183
76673,1,STOPPED_AT,35,14236,SE Division & 168th Ave,45.504701,-122.490105,152736.7499024743
76680,2,TRANSIT_TO,33,14234,Gresham City Hall Park & Ride,45.50363083333333,-122.42698016666667,147809.6479634629
76680,1,DWELL_AT,35,14236,SE Division & 168th Ave,45.504701,-122.490105,152736.7499024743
76680,3,TRANSIT_TO,30,13780,SW Hall & 5th,45.50699433333333,-122.66525866666667,125305.32073353625
76680,4,DWELL_AT,26,11486,SW 6th & Columbia,45.514267,-122.681095,107274.59531435183
76710,2,TRANSIT_TO,33,14234,Gresham City Hall Park & Ride,45.50415783333333,-122.43220716666667,148221.19148500296
76710,1,TRANSIT_TO,36,14237,SE Division & 157th Ave,45.50465688034188,-122.49308431623932,152968.98332612566
76710,3,TRANSIT_TO,30,13780,SW Hall & 5th,45.50867576190476,-122.67427438095238,126032.33143127362
76710,4,DWELL_AT,26,11486,SW 6th & Columbia,45.514267,-122.681095,107274.59531435183
76735,2,STOPPED_AT,33,14234,Gresham City Hall Park & Ride,45.504597,-122.436563,148564.14441961967
76736,3,STOPPED_AT,30,13780,SW Hall & 5th,45.510133,-122.682088,126662.40736931267
76740,3,DWELL_AT,30,13780,SW Hall & 5th,45.510133,-122.682088,126662.40736931267
76740,2,DWELL_AT,33,14234,Gresham City Hall Park & Ride,45.504597,-122.436563,148564.14441961967
76740,1,TRANSIT_TO,36,14237,SE Division & 157th Ave,45.50461123931624,-122.49616636752137,153209.22479886844
76740,4,STOPPED_AT,27,13298,SE Division & SE Division St MAX Station,45.504577,-122.567451,116195.55598426386
76770,4,DWELL_AT,27,13298,SE Division & SE Division St MAX Station,45.504577,-122.567451,116195.55598426386
76770,1,TRANSIT_TO,36,14237,SE Division & 157th Ave,45.5045655982906,-122.49924841880342,153449.46627161122
76770,3,DWELL_AT,30,13780,SW Hall & 5th,45.510133,-122.682088,126662.40736931267
76770,2,DWELL_AT,33,14234,Gresham City Hall Park & Ride,45.504597,-122.436563,148564.14441961967
76798,1,STOPPED_AT,36,14237,SE Division & 157th Ave,45.504523,-122.502125,153673.69164617115
76800,1,DWELL_AT,36,14237,SE Division & 157th Ave,45.504523,-122.502125,153673.69164617115
76800,2,TRANSIT_TO,34,14235,18000 Block SE Division,45.504621010989005,-122.44680482417583,149362.30575646023
76800,3,DWELL_AT,30,13780,SW Hall & 5th,45.510133,-122.682088,126662.40736931267
76800,4,TRANSIT_TO,28,13733,South Waterfront/S Moody,45.5044806557377,-122.57258247540985,116595.60851214574
76830,1,TRANSIT_TO,37,14238,SE Division & 116th Ave,45.5044736,-122.51053800000001,154329.35205673857
76830,2,TRANSIT_TO,34,14235,18000 Block SE Division,45.50465232967033,-122.46016372527473,150403.38576103488
76830,4,TRANSIT_TO,28,13733,South Waterfront/S Moody,45.503517213114755,-122.6238972295082,120596.13379096464
76830,3,DWELL_AT,30,13780,SW Hall & 5th,45.510133,-122.682088,126662.40736931267
76858,4,STOPPED_AT,28,13733,South Waterfront/S Moody,45.502618,-122.671791,124329.95738452894
76860,3,DWELL_AT,30,13780,SW Hall & 5th,45.510133,-122.682088,126662.40736931267
76860,1,TRANSIT_TO,37,14238,SE Division & 116th Ave,45.50441185,-122.52105425,155148.92756994785
76860,2,TRANSIT_TO,34,14235,18000 Block SE Division,45.504683648351644,-122.47352262637362,151444.46576560955
76860,4,DWELL_AT,28,13733,South Waterfront/S Moody,45.502618,-122.671791,124329.95738452894
76868,2,STOPPED_AT,34,14235,18000 Block SE Division,45.504692,-122.477085,151722.08710016278
76890,3,DWELL_AT,30,13780,SW Hall & 5th,45.510133,-122.682088,126662.40736931267
76890,2,DWELL_AT,34,14235,18000 Block SE Division,45.504692,-122.477085,151722.08710016278
76890,1,TRANSIT_TO,37,14238,SE Division & 116th Ave,45.504350099999996,-122.5315705,155968.50308315715
76890,4,DWELL_AT,28,13733,South Waterfront/S Moody,45.502618,-122.671791,124329.95738452894
76920,2,DWELL_AT,34,14235,18000 Block SE Division,45.504692,-122.477085,151722.08710016278
76920,1,TRANSIT_TO,37,14238,SE Division & 116th Ave,45.504288349999996,-122.54208675,156788.07859636642
76920,3,DWELL_AT,30,13780,SW Hall & 5th,45.510133,-122.682088,126662.40736931267
76920,4,DWELL_AT,28,13733,South Waterfront/S Moody,45.502618,-122.671791,124329.95738452894
76926,1,STOPPED_AT,37,14238,SE Division & 116th Ave,45.504276,-122.54419,156951.99369900828
76950,2,TRANSIT_TO,35,14236,SE Division & 168th Ave,45.50469289573459,-122.4783808293839,151823.07249754923
76950,1,TRANSIT_TO,38,14239,11100 Block SE Division,45.50428787301587,-122.54543504761905,157049.0312391677
76950,3,DWELL_AT,30,13780,SW Hall & 5th,45.510133,-122.682088,126662.40736931267
76950,4,TRANSIT_TO,29,13773,OMSI/SE Water,45.503885636363634,-122.66904318181818,124586.3252316538
76980,2,TRANSIT_TO,35,14236,SE Division & 168th Ave,45.504694175355446,-122.48023201421802,151967.33735095846
76980,4,TRANSIT_TO,29,13773,OMSI/SE Water,45.50569654545455,-122.66511772727273,124952.56501326073
76980,3,TRANSIT_TO,31,14232,Cleveland Ave Park & Ride,45.509352222222226,-122.652852,128942.37435507255
76980,1,TRANSIT_TO,38,14239,11100 Block SE Division,45.504308825396826,-122.5476321904762,157220.2739570961
76995,4,STOPPED_AT,29,13773,OMSI/SE Water,45.506602,-122.663155,125135.6849040642
76996,1,STOPPED_AT,38,14239,11100 Block SE Division,45.50432,-122.548804,157311.6034066579
77010,1,TRANSIT_TO,39,14240,SE Division & 75th Ave,45.50438331491713,-122.55086819889503,157472.62202401485
77010,3,TRANSIT_TO,31,14232,Cleveland Ave Park & Ride,45.507009888888895,-122.565144,135782.27531235217
77010,2,TRANSIT_TO,35,14236,SE Division & 168th Ave,45.5046954549763,-122.48208319905213,152111.60220436766
77010,4,DWELL_AT,29,13773,OMSI/SE Water,45.506602,-122.663155,125135.6849040642
77040,3,TRANSIT_TO,31,14232,Cleveland Ave Park & Ride,45.50466755555556,-122.477436,142622.1762696318
77040,1,TRANSIT_TO,39,14240,SE Division & 75th Ave,45.50457325966851,-122.55706079558011,157955.67787608574
77040,4,DWELL_AT,29,13773,OMSI/SE Water,45.506602,-122.663155,125135.6849040642
77040,2,TRANSIT_TO,35,14236,SE Division & 168th Ave,45.504696734597154,-122.48393438388625,152255.8670577769
77060,3,STOPPED_AT,31,14232,Cleveland Ave Park & Ride,45.503106,-122.418964,147182.11024115156
77070,4,TRANSIT_TO,30,13780,SW Hall & 5th,45.50760245,-122.66851935,125568.25626921793
77070,1,TRANSIT_TO,39,14240,SE Division & 75th Ave,45.50476320441989,-122.5632533922652,158438.7337281566
77070,2,TRANSIT_TO,35,14236,SE Division & 168th Ave,45.50469801421801,-122.48578556872037,152400.13191118612
77070,3,DWELL_AT,31,14232,Cleveland Ave Park & Ride,45.503106,-122.418964,147182.11024115156
77100,3,DWELL_AT,31,14232,Cleveland Ave Park & Ride,45.503106,-122.418964,147182.11024115156
77100,1,TRANSIT_TO,39,14240,SE Division & 75th Ave,45.50495314917127,-122.56944598895028,158921.7895802275
77100,2,TRANSIT_TO,35,14236,SE Division & 168th Ave,45.50469929383886,-122.4876367535545,152544.39676459532
77100,4,TRANSIT_TO,30,13780,SW Hall & 5th,45.509367950000005,-122.67798585,126331.61750184216
77113,4,STOPPED_AT,30,13780,SW Hall & 5th,45.510133,-122.682088,126662.40736931267
77130,3,DWELL_AT,31,14232,Cleveland Ave Park & Ride,45.503106,-122.418964,147182.11024115156
77130,1,TRANSIT_TO,39,14240,SE Division & 75th Ave,45.50514309392265,-122.57563858563536,159404.84543229837
77130,2,TRANSIT_TO,35,14236,SE Division & 168th Ave,45.504700573459715,-122.48948793838862,152688.66161800455
77130,4,DWELL_AT,30,13780,SW Hall & 5th,45.510133,-122.682088,126662.40736931267
77140,2,STOPPED_AT,35,14236,SE Division & 168th Ave,45.504701,-122.490105,152736.7499024743
77160,1,TRANSIT_TO,39,14240,SE Division & 75th Ave,45.50533303867403,-122.58183118232044,159887.90128436923
77160,2,DWELL_AT,35,14236,SE Division & 168th Ave,45.504701,-122.490105,152736.7499024743
77160,4,DWELL_AT,30,13780,SW Hall & 5th,45.510133,-122.682088,126662.40736931267
77160,3,TRANSIT_TO,32,14233,Gresham Central Transit Center,45.50312081355933,-122.41920620338983,147201.05760167318
77181,1,STOPPED_AT,39,14240,SE Division & 75th Ave,45.505466,-122.586166,160226.04038081886
77190,1,TRANSIT_TO,40,14241,SE Division & 59th Ave,45.5054610877193,-122.58760292982457,160338.02169211488
77190,2,TRANSIT_TO,36,14237,SE Division & 157th Ave,45.504664796610165,-122.49254974576272,152927.3143249211
77190,3,TRANSIT_TO,32,14233,Gresham Central Transit Center,45.50334301694915,-122.42283925423729,147485.26800949758
77190,4,DWELL_AT,30,13780,SW Hall & 5th,45.510133,-122.682088,126662.40736931267
77217,3,STOPPED_AT,32,14233,Gresham Central Transit Center,45.503543,-122.426109,147741.05737653954
77220,3,DWELL_AT,32,14233,Gresham Central Transit Center,45.503543,-122.426109,147741.05737653954
77220,4,DWELL_AT,30,13780,SW Hall & 5th,45.510133,-122.682088,126662.40736931267
77220,1,TRANSIT_TO,40,14241,SE Division & 59th Ave,45.50543161403509,-122.59622450877194,161009.90955989112
77220,2,TRANSIT_TO,36,14237,SE Division & 157th Ave,45.50461954237288,-122.49560567796611,153165.51985297963
77242,1,STOPPED_AT,40,14241,SE Division & 59th Ave,45.50541,-122.602547,161502.62732959367
77250,3,DWELL_AT,32,14233,Gresham Central Transit Center,45.503543,-122.426109,147741.05737653954
77250,1,TRANSIT_TO,41,14242,SE Division & 51st Ave,45.505407999999996,-122.60298027777777,161536.39343823458
77250,2,TRANSIT_TO,36,14237,SE Division & 157th Ave,45.50457428813559,-122.49866161016949,153403.72538103815
77250,4,DWELL_AT,30,13780,SW Hall & 5th,45.510133,-122.682088,126662.40736931267
77280,4,DWELL_AT,30,13780,SW Hall & 5th,45.510133,-122.682088,126662.40736931267
77280,3,DWELL_AT,32,14233,Gresham Central Transit Center,45.503543,-122.426109,147741.05737653954
77280,2,TRANSIT_TO,36,14237,SE Division & 157th Ave,45.5045290338983,-122.50171754237289,153641.93090909667
77280,1,TRANSIT_TO,41,14242,SE Division & 51st Ave,45.505396,-122.60557994444444,161738.99009008007
77284,2,STOPPED_AT,36,14237,SE Division & 157th Ave,45.504523,-122.502125,153673.69164617115
77310,2,DWELL_AT,36,14237,SE Division & 157th Ave,45.504523,-122.502125,153673.69164617115
77310,1,TRANSIT_TO,41,14242,SE Division & 51st Ave,45.505384,-122.60817961111111,161941.58674192554
77310,3,DWELL_AT,32,14233,Gresham Central Transit Center,45.503543,-122.426109,147741.05737653954
77310,4,DWELL_AT,30,13780,SW Hall & 5th,45.510133,-122.682088,126662.40736931267
77335,1,STOPPED_AT,41,14242,SE Division & 51st Ave,45.505374,-122.610346,162110.4172851301
77340,2,DWELL_AT,36,14237,SE Division & 157th Ave,45.504523,-122.502125,153673.69164617115
77340,1,DWELL_AT,41,14242,SE Division & 51st Ave,45.505374,-122.610346,162110.4172851301
77340,3,TRANSIT_TO,33,14234,Gresham City Hall Park & Ride,45.50375034426229,-122.42816552459016,147902.97613911267
77340,4,DWELL_AT,30,13780,SW Hall & 5th,45.510133,-122.682088,126662.40736931267
77370,2,TRANSIT_TO,37,14238,SE Division & 116th Ave,45.504468780487805,-122.51135878048781,154393.31892606223
77370,4,DWELL_AT,30,13780,SW Hall & 5th,45.510133,-122.682088,126662.40736931267
77370,1,TRANSIT_TO,42,14243,SE Division & 20th Ave,45.50530688571429,-122.61526674761906,162493.9659746332
77370,3,TRANSIT_TO,33,14234,Gresham City Hall Park & Ride,45.50426870491803,-122.43330683606558,148307.77304554553
77389,3,STOPPED_AT,33,14234,Gresham City Hall Park & Ride,45.504597,-122.436563,148564.14441961967
77400,4,DWELL_AT,30,13780,SW Hall & 5th,45.510133,-122.682088,126662.40736931267
77400,1,TRANSIT_TO,42,14243,SE Division & 20th Ave,45.50523745714286,-122.62035717619048,162890.74048101576
77400,3,DWELL_AT,33,14234,Gresham City Hall Park & Ride,45.504597,-122.436563,148564.14441961967
77400,2,TRANSIT_TO,37,14238,SE Division & 116th Ave,45.504408536585366,-122.52161853658536,155192.90479260788
77430,4,DWELL_AT,30,13780,SW Hall & 5th,45.510133,-122.682088,126662.40736931267
77430,3,DWELL_AT,33,14234,Gresham City Hall Park & Ride,45.504597,-122.436563,148564.14441961967
77430,1,TRANSIT_TO,42,14243,SE Division & 20th Ave,45.50516802857143,-122.6254476047619,163287.5149873983
77430,2,TRANSIT_TO,37,14238,SE Division & 116th Ave,45.50434829268293,-122.53187829268293,155992.4906591535
77460,1,TRANSIT_TO,42,14243,SE Division & 20th Ave,45.505098600000004,-122.63053803333334,163684.28949378082
77460,3,DWELL_AT,33,14234,Gresham City Hall Park & Ride,45.504597,-122.436563,148564.14441961967
77460,4,DWELL_AT,30,13780,SW Hall & 5th,45.510133,-122.682088,126662.40736931267
77460,2,TRANSIT_TO,37,14238,SE Division & 116th Ave,45.50428804878049,-122.54213804878049,156792.07652569914
77466,2,STOPPED_AT,37,14238,SE Division & 116th Ave,45.504276,-122.54419,156951.99369900828
77490,1,TRANSIT_TO,42,14243,SE Division & 20th Ave,45.505029171428575,-122.63562846190476,164081.06400016337
77490,3,TRANSIT_TO,34,14235,18000 Block SE Division,45.504604388888886,-122.43971471111112,148809.76218366192
77490,4,DWELL_AT,30,13780,SW Hall & 5th,45.510133,-122.682088,126662.40736931267
77490,2,DWELL_AT,37,14238,SE Division & 116th Ave,45.504276,-122.54419,156951.99369900828
77520,4,DWELL_AT,30,13780,SW Hall & 5th,45.510133,-122.682088,126662.40736931267
77520,2,DWELL_AT,37,14238,SE Division & 116th Ave,45.504276,-122.54419,156951.99369900828
77520,1,TRANSIT_TO,42,14243,SE Division & 20th Ave,45.504959742857146,-122.6407188904762,164477.8385065459
77520,3,TRANSIT_TO,34,14235,18000 Block SE Division,45.50463605555555,-122.45322204444444,149862.40974384296
77550,4,DWELL_AT,30,13780,SW Hall & 5th,45.510133,-122.682088,126662.40736931267
77550,2,TRANSIT_TO,38,14239,11100 Block SE Division,45.50427895302013,-122.54449966442954,156976.1285787163
77550,1,TRANSIT_TO,42,14243,SE Division & 20th Ave,45.50489031428572,-122.64580931904761,164874.61301292843
77550,3,TRANSIT_TO,34,14235,18000 Block SE Division,45.50466772222222,-122.46672937777778,150915.057304024
77551,1,STOPPED_AT,42,14243,SE Division & 20th Ave,45.504888,-122.645979,164887.83882980785
77573,3,STOPPED_AT,34,14235,18000 Block SE Division,45.504692,-122.477085,151722.08710016278
77580,2,TRANSIT_TO,38,14239,11100 Block SE Division,45.504287812080534,-122.54542865771812,157048.5332178404
77580,3,DWELL_AT,34,14235,18000 Block SE Division,45.504692,-122.477085,151722.08710016278
77580,4,DWELL_AT,30,13780,SW Hall & 5th,45.510133,-122.682088,126662.40736931267
77610,4,DWELL_AT,30,13780,SW Hall & 5th,45.510133,-122.682088,126662.40736931267
77610,2,TRANSIT_TO,38,14239,11100 Block SE Division,45.504296671140935,-122.54635765100672,157120.93785696448
77610,3,DWELL_AT,34,14235,18000 Block SE Division,45.504692,-122.477085,151722.08710016278
77640,3,DWELL_AT,34,14235,18000 Block SE Division,45.504692,-122.477085,151722.08710016278
77640,2,TRANSIT_TO,38,14239,11100 Block SE Division,45.50430553020134,-122.54728664429531,157193.34249608856
77640,4,DWELL_AT,30,13780,SW Hall & 5th,45.510133,-122.682088,126662.40736931267
77670,4,DWELL_AT,30,13780,SW Hall & 5th,45.510133,-122.682088,126662.40736931267
77670,3,DWELL_AT,34,14235,18000 Block SE Division,45.504692,-122.477085,151722.08710016278
77670,2,TRANSIT_TO,38,14239,11100 Block SE Division,45.504314389261744,-122.5482156375839,157265.74713521264
77689,2,STOPPED_AT,38,14239,11100 Block SE Division,45.50432,-122.548804,157311.6034066579
77700,2,DWELL_AT,38,14239,11100 Block SE Division,45.50432,-122.548804,157311.6034066579
77700,4,DWELL_AT,30,13780,SW Hall & 5th,45.510133,-122.682088,126662.40736931267
77700,3,TRANSIT_TO,35,14236,SE Division & 168th Ave,45.504692514285715,-122.477829,151780.06783172343
77730,3,TRANSIT_TO,35,14236,SE Division & 168th Ave,45.5046938,-122.47968900000001,151925.01966062508
77730,2,DWELL_AT,38,14239,11100 Block SE Division,45.50432,-122.548804,157311.6034066579
77730,4,DWELL_AT,30,13780,SW Hall & 5th,45.510133,-122.682088,126662.40736931267
77760,2,DWELL_AT,38,14239,11100 Block SE Division,45.50432,-122.548804,157311.6034066579
77760,4,DWELL_AT,30,13780,SW Hall & 5th,45.510133,-122.682088,126662.40736931267
77760,3,TRANSIT_TO,35,14236,SE Division & 168th Ave,45.50469508571428,-122.481549,152069.97148952674
77790,2,TRANSIT_TO,39,14240,SE Division & 75th Ave,45.50438517535545,-122.55092885308058,157477.35337675238
77790,3,TRANSIT_TO,35,14236,SE Division & 168th Ave,45.50469637142857,-122.483409,152214.92331842837
77790,4,TRANSIT_TO,31,14232,Cleveland Ave Park & Ride,45.50673661666667,-122.5549114,136580.26375736814
77820,3,TRANSIT_TO,35,14236,SE Division & 168th Ave,45.504697657142856,-122.485269,152359.87514733002
77820,4,TRANSIT_TO,31,14232,Cleveland Ave Park & Ride,45.50322311666667,-122.4233494,146840.11519328758
77820,2,TRANSIT_TO,39,14240,SE Division & 75th Ave,45.50454811374408,-122.556240985782,157891.7283019885
77821,4,STOPPED_AT,31,14232,Cleveland Ave Park & Ride,45.503106,-122.418964,147182.11024115156
77850,2,TRANSIT_TO,39,14240,SE Division & 75th Ave,45.5047110521327,-122.56155311848342,158306.10322722467
77850,3,TRANSIT_TO,35,14236,SE Division & 168th Ave,45.50469894285714,-122.487129,152504.82697623165
77850,4,DWELL_AT,31,14232,Cleveland Ave Park & Ride,45.503106,-122.418964,147182.11024115156
77880,4,DWELL_AT,31,14232,Cleveland Ave Park & Ride,45.503106,-122.418964,147182.11024115156
77880,2,TRANSIT_TO,39,14240,SE Division & 75th Ave,45.504873990521325,-122.56686525118484,158720.47815246083
77880,3,TRANSIT_TO,35,14236,SE Division & 168th Ave,45.50470022857142,-122.488989,152649.7788051333
77898,3,STOPPED_AT,35,14236,SE Division & 168th Ave,45.504701,-122.490105,152736.7499024743
77910,2,TRANSIT_TO,39,14240,SE Division & 75th Ave,45.50503692890995,-122.57217738388626,159134.853077697
77910,4,DWELL_AT,31,14232,Cleveland Ave Park & Ride,45.503106,-122.418964,147182.11024115156
77910,3,DWELL_AT,35,14236,SE Division & 168th Ave,45.504701,-122.490105,152736.7499024743
77940,4,TRANSIT_TO,32,14233,Gresham Central Transit Center,45.50325895,-122.42146475,147377.74173853736
77940,3,DWELL_AT,35,14236,SE Division & 168th Ave,45.504701,-122.490105,152736.7499024743
77940,2,TRANSIT_TO,39,14240,SE Division & 75th Ave,45.50519986729858,-122.57748951658769,159549.22800293315
77970,3,TRANSIT_TO,36,14237,SE Division & 157th Ave,45.50466184,-122.49274940000001,152942.8770860876
77970,2,TRANSIT_TO,39,14240,SE Division & 75th Ave,45.505362805687206,-122.58280164928911,159963.6029281693
77970,4,TRANSIT_TO,32,14233,Gresham Central Transit Center,45.50347745,-122.42503725,147657.21530623134
77979,4,STOPPED_AT,32,14233,Gresham Central Transit Center,45.503543,-122.426109,147741.05737653954
77989,2,STOPPED_AT,39,14240,SE Division & 75th Ave,45.505466,-122.586166,160226.04038081886
78000,4,DWELL_AT,32,14233,Gresham Central Transit Center,45.503543,-122.426109,147741.05737653954
78000,2,DWELL_AT,39,14240,SE Division & 75th Ave,45.505466,-122.586166,160226.04038081886
78000,3,TRANSIT_TO,36,14237,SE Division & 157th Ave,45.50460844,-122.4963554,153223.95960919667
78030,2,DWELL_AT,39,14240,SE Division & 75th Ave,45.505466,-122.586166,160226.04038081886
78030,3,TRANSIT_TO,36,14237,SE Division & 157th Ave,45.50455504,-122.4999614,153505.0421323057
78030,4,DWELL_AT,32,14233,Gresham Central Transit Center,45.503543,-122.426109,147741.05737653954
78048,3,STOPPED_AT,36,14237,SE Division & 157th Ave,45.504523,-122.502125,153673.69164617115
78060,3,DWELL_AT,36,14237,SE Division & 157th Ave,45.504523,-122.502125,153673.69164617115
78060,4,DWELL_AT,32,14233,Gresham Central Transit Center,45.503543,-122.426109,147741.05737653954
78060,2,TRANSIT_TO,40,14241,SE Division & 59th Ave,45.50543053333333,-122.59654063333333,161034.54544837624
78071,2,STOPPED_AT,40,14241,SE Division & 59th Ave,45.50541,-122.602547,161502.62732959367
78090,2,DWELL_AT,40,14241,SE Division & 59th Ave,45.50541,-122.602547,161502.62732959367
78090,3,DWELL_AT,36,14237,SE Division & 157th Ave,45.504523,-122.502125,153673.69164617115
78090,4,DWELL_AT,32,14233,Gresham Central Transit Center,45.503543,-122.426109,147741.05737653954
78120,3,DWELL_AT,36,14237,SE Division & 157th Ave,45.504523,-122.502125,153673.69164617115
78120,2,DWELL_AT,40,14241,SE Division & 59th Ave,45.50541,-122.602547,161502.62732959367
78120,4,TRANSIT_TO,33,14234,Gresham City Hall Park & Ride,45.5039119,-122.4297679,148029.13784161757
78150,3,DWELL_AT,36,14237,SE Division & 157th Ave,45.504523,-122.502125,153673.69164617115
78150,4,TRANSIT_TO,33,14234,Gresham City Hall Park & Ride,45.5044389,-122.4349949,148440.68136315764
78150,2,DWELL_AT,40,14241,SE Division & 59th Ave,45.50541,-122.602547,161502.62732959367
78159,4,STOPPED_AT,33,14234,Gresham City Hall Park & Ride,45.504597,-122.436563,148564.14441961967
78180,3,TRANSIT_TO,37,14238,SE Division & 116th Ave,45.50448082926829,-122.5093068292683,154233.4017527531
78180,2,DWELL_AT,40,14241,SE Division & 59th Ave,45.50541,-122.602547,161502.62732959367
78180,4,DWELL_AT,33,14234,Gresham City Hall Park & Ride,45.504597,-122.436563,148564.14441961967
78210,4,DWELL_AT,33,14234,Gresham City Hall Park & Ride,45.504597,-122.436563,148564.14441961967
78210,2,DWELL_AT,40,14241,SE Division & 59th Ave,45.50541,-122.602547,161502.62732959367
78210,3,TRANSIT_TO,37,14238,SE Division & 116th Ave,45.50442058536585,-122.51956658536585,155032.98761929874
78240,2,TRANSIT_TO,41,14242,SE Division & 51st Ave,45.505405599999996,-122.60350021111111,161576.91276860368
78240,3,TRANSIT_TO,37,14238,SE Division & 116th Ave,45.50436034146341,-122.52982634146342,155832.5734858444
78240,4,DWELL_AT,33,14234,Gresham City Hall Park & Ride,45.504597,-122.436563,148564.14441961967
78270,4,TRANSIT_TO,34,14235,18000 Block SE Division,45.50460415053763,-122.43961304301077,148801.83902998312
78270,3,TRANSIT_TO,37,14238,SE Division & 116th Ave,45.50430009756097,-122.54008609756097,156632.15935239004
78270,2,TRANSIT_TO,41,14242,SE Division & 51st Ave,45.5053936,-122.60609987777778,161779.50942044915
78282,3,STOPPED_AT,37,14238,SE Division & 116th Ave,45.504276,-122.54419,156951.99369900828
78300,3,DWELL_AT,37,14238,SE Division & 116th Ave,45.504276,-122.54419,156951.99369900828
78300,2,TRANSIT_TO,41,14242,SE Division & 51st Ave,45.5053816,-122.60869954444445,161982.10607229464
78300,4,TRANSIT_TO,34,14235,18000 Block SE Division,45.50463479569892,-122.45268465591398,149820.5302172551
78319,2,STOPPED_AT,41,14242,SE Division & 51st Ave,45.505374,-122.610346,162110.4172851301
78330,3,DWELL_AT,37,14238,SE Division & 116th Ave,45.504276,-122.54419,156951.99369900828
78330,4,TRANSIT_TO,34,14235,18000 Block SE Division,45.504665440860215,-122.4657562688172,150839.22140452708
78330,2,DWELL_AT,41,14242,SE Division & 51st Ave,45.505374,-122.610346,162110.4172851301
78356,4,STOPPED_AT,34,14235,18000 Block SE Division,45.504692,-122.477085,151722.08710016278
78360,3,DWELL_AT,37,14238,SE Division & 116th Ave,45.504276,-122.54419,156951.99369900828
78360,2,DWELL_AT,41,14242,SE Division & 51st Ave,45.505374,-122.610346,162110.4172851301
78360,4,DWELL_AT,34,14235,18000 Block SE Division,45.504692,-122.477085,151722.08710016278
78390,2,DWELL_AT,41,14242,SE Division & 51st Ave,45.505374,-122.610346,162110.4172851301
78390,3,DWELL_AT,37,14238,SE Division & 116th Ave,45.504276,-122.54419,156951.99369900828
78390,4,DWELL_AT,34,14235,18000 Block SE Division,45.504692,-122.477085,151722.08710016278
78420,2,DWELL_AT,41,14242,SE Division & 51st Ave,45.505374,-122.610346,162110.4172851301
78420,4,DWELL_AT,34,14235,18000 Block SE Division,45.504692,-122.477085,151722.08710016278
78420,3,TRANSIT_TO,38,14239,11100 Block SE Division,45.504289199999995,-122.5455742,157059.87661130316
78450,4,DWELL_AT,34,14235,18000 Block SE Division,45.504692,-122.477085,151722.08710016278
78450,3,TRANSIT_TO,38,14239,11100 Block SE Division,45.5043112,-122.5478812,157239.68146512797
78450,2,DWELL_AT,41,14242,SE Division & 51st Ave,45.505374,-122.610346,162110.4172851301
78462,3,STOPPED_AT,38,14239,11100 Block SE Division,45.50432,-122.548804,157311.6034066579
78480,3,DWELL_AT,38,14239,11100 Block SE Division,45.50432,-122.548804,157311.6034066579
78480,4,DWELL_AT,34,14235,18000 Block SE Division,45.504692,-122.477085,151722.08710016278
78480,2,DWELL_AT,41,14242,SE Division & 51st Ave,45.505374,-122.610346,162110.4172851301
78510,4,DWELL_AT,34,14235,18000 Block SE Division,45.504692,-122.477085,151722.08710016278
78510,2,DWELL_AT,41,14242,SE Division & 51st Ave,45.505374,-122.610346,162110.4172851301
78510,3,DWELL_AT,38,14239,11100 Block SE Division,45.50432,-122.548804,157311.6034066579
78540,4,DWELL_AT,34,14235,18000 Block SE Division,45.504692,-122.477085,151722.08710016278
78540,2,TRANSIT_TO,42,14243,SE Division & 20th Ave,45.505293,-122.61628483333334,162573.32087590973
78540,3,DWELL_AT,38,14239,11100 Block SE Division,45.50432,-122.548804,157311.6034066579
78570,4,DWELL_AT,34,14235,18000 Block SE Division,45.504692,-122.477085,151722.08710016278
78570,2,TRANSIT_TO,42,14243,SE Division & 20th Ave,45.505212,-122.62222366666667,163036.22446668934
78570,3,TRANSIT_TO,39,14240,SE Division & 75th Ave,45.5044728,-122.5537856,157700.1950032127
78600,2,TRANSIT_TO,42,14243,SE Division & 20th Ave,45.505131000000006,-122.6281625,163499.12805746897
78600,4,TRANSIT_TO,35,14236,SE Division & 168th Ave,45.50469316292135,-122.47876735955056,151853.1952150682
78600,3,TRANSIT_TO,39,14240,SE Division & 75th Ave,45.504702,-122.56125800000001,158283.08239804488
78630,4,TRANSIT_TO,35,14236,SE Division & 168th Ave,45.50469467977528,-122.48096174157304,152024.20579972744
78630,2,TRANSIT_TO,42,14243,SE Division & 20th Ave,45.505050000000004,-122.63410133333333,163962.0316482486
78630,3,TRANSIT_TO,39,14240,SE Division & 75th Ave,45.5049312,-122.5687304,158865.9697928771
78660,2,TRANSIT_TO,42,14243,SE Division & 20th Ave,45.504969,-122.64004016666667,164424.93523902821
78660,3,TRANSIT_TO,39,14240,SE Division & 75th Ave,45.5051604,-122.5762028,159448.85718770928
78660,4,TRANSIT_TO,35,14236,SE Division & 168th Ave,45.50469619662921,-122.4831561235955,152195.21638438667
78690,4,TRANSIT_TO,35,14236,SE Division & 168th Ave,45.50469771348315,-122.48535050561797,152366.22696904594
78690,2,STOPPED_AT,42,14243,SE Division & 20th Ave,45.504888,-122.645979,164887.83882980785
78690,3,TRANSIT_TO,39,14240,SE Division & 75th Ave,45.5053896,-122.5836752,160031.74458254146
78700,3,STOPPED_AT,39,14240,SE Division & 75th Ave,45.505466,-122.586166,160226.04038081886
78720,4,TRANSIT_TO,35,14236,SE Division & 168th Ave,45.504699230337074,-122.48754488764045,152537.23755370517
78720,3,DWELL_AT,39,14240,SE Division & 75th Ave,45.505466,-122.586166,160226.04038081886
78750,4,TRANSIT_TO,35,14236,SE Division & 168th Ave,45.50470074719101,-122.48973926966292,152708.2481383644
78750,3,DWELL_AT,39,14240,SE Division & 75th Ave,45.505466,-122.586166,160226.04038081886
78755,4,STOPPED_AT,35,14236,SE Division & 168th Ave,45.504701,-122.490105,152736.7499024743
78780,3,TRANSIT_TO,40,14241,SE Division & 59th Ave,45.505452,-122.59026125,160545.18711801257
78780,4,DWELL_AT,35,14236,SE Division & 168th Ave,45.504701,-122.490105,152736.7499024743
78810,3,TRANSIT_TO,40,14241,SE Division & 59th Ave,45.505432909090906,-122.59584568181819,160980.3872141858
78810,4,TRANSIT_TO,36,14237,SE Division & 157th Ave,45.50469506666666,-122.49050566666666,152767.98129393085
78840,3,TRANSIT_TO,40,14241,SE Division & 59th Ave,45.505413818181815,-122.60143011363637,161415.58731035903
78840,4,TRANSIT_TO,36,14237,SE Division & 157th Ave,45.50460606666667,-122.49651566666667,153236.45216577928
78846,3,STOPPED_AT,40,14241,SE Division & 59th Ave,45.50541,-122.602547,161502.62732959367
78868,4,STOPPED_AT,36,14237,SE Division & 157th Ave,45.504523,-122.502125,153673.69164617115
78870,3,DWELL_AT,40,14241,SE Division & 59th Ave,45.50541,-122.602547,161502.62732959367
78870,4,DWELL_AT,36,14237,SE Division & 157th Ave,45.504523,-122.502125,153673.69164617115
78900,4,DWELL_AT,36,14237,SE Division & 157th Ave,45.504523,-122.502125,153673.69164617115
78900,3,DWELL_AT,40,14241,SE Division & 59th Ave,45.50541,-122.602547,161502.62732959367
78930,4,DWELL_AT,36,14237,SE Division & 157th Ave,45.504523,-122.502125,153673.69164617115
78930,3,DWELL_AT,40,14241,SE Division & 59th Ave,45.50541,-122.602547,161502.62732959367
78960,4,DWELL_AT,36,14237,SE Division & 157th Ave,45.504523,-122.502125,153673.69164617115
78960,3,DWELL_AT,40,14241,SE Division & 59th Ave,45.50541,-122.602547,161502.62732959367
78990,3,TRANSIT_TO,41,14242,SE Division & 51st Ave,45.505379806451614,-122.6090880967742,162012.38664714035
78990,4,TRANSIT_TO,37,14238,SE Division & 116th Ave,45.50451963945578,-122.50269731292518,153718.29439518935
78995,3,STOPPED_AT,41,14242,SE Division & 51st Ave,45.505374,-122.610346,162110.4172851301
79020,4,TRANSIT_TO,37,14238,SE Division & 116th Ave,45.50446923129252,-122.51128200680273,154387.3356304622
79020,3,DWELL_AT,41,14242,SE Division & 51st Ave,45.505374,-122.610346,162110.4172851301
79050,4,TRANSIT_TO,37,14238,SE Division & 116th Ave,45.50441882312925,-122.51986670068028,155056.3768657351
79050,3,DWELL_AT,41,14242,SE Division & 51st Ave,45.505374,-122.610346,162110.4172851301
79080,4,TRANSIT_TO,37,14238,SE Division & 116th Ave,45.50436841496598,-122.52845139455782,155725.418101008
79080,3,DWELL_AT,41,14242,SE Division & 51st Ave,45.505374,-122.610346,162110.4172851301
79110,3,DWELL_AT,41,14242,SE Division & 51st Ave,45.505374,-122.610346,162110.4172851301
79110,4,TRANSIT_TO,37,14238,SE Division & 116th Ave,45.50431800680272,-122.53703608843537,156394.45933628088
79135,4,STOPPED_AT,37,14238,SE Division & 116th Ave,45.504276,-122.54419,156951.99369900828
79140,4,DWELL_AT,37,14238,SE Division & 116th Ave,45.504276,-122.54419,156951.99369900828
79140,3,DWELL_AT,41,14242,SE Division & 51st Ave,45.505374,-122.610346,162110.4172851301
79170,4,DWELL_AT,37,14238,SE Division & 116th Ave,45.504276,-122.54419,156951.99369900828
79170,3,TRANSIT_TO,42,14243,SE Division & 20th Ave,45.505301100000004,-122.61569095,162527.03051683176
79200,3,TRANSIT_TO,42,14243,SE Division & 20th Ave,45.505179600000005,-122.6245992,163221.3859030012
79200,4,DWELL_AT,37,14238,SE Division & 116th Ave,45.504276,-122.54419,156951.99369900828
79230,4,DWELL_AT,37,14238,SE Division & 116th Ave,45.504276,-122.54419,156951.99369900828
79230,3,TRANSIT_TO,42,14243,SE Division & 20th Ave,45.5050581,-122.63350745,163915.74128917063
79260,3,TRANSIT_TO,42,14243,SE Division & 20th Ave,45.5049366,-122.6424157,164610.0966753401
79260,4,DWELL_AT,37,14238,SE Division & 116th Ave,45.504276,-122.54419,156951.99369900828
79272,3,STOPPED_AT,42,14243,SE Division & 20th Ave,45.504888,-122.645979,164887.83882980785
79290,4,TRANSIT_TO,38,14239,11100 Block SE Division,45.504287,-122.5453435,157041.8961259207
79320,4,TRANSIT_TO,38,14239,11100 Block SE Division,45.504298,-122.546497,157131.7985528331
79350,4,TRANSIT_TO,38,14239,11100 Block SE Division,45.504309,-122.5476505,157221.70097974548
79380,4,STOPPED_AT,38,14239,11100 Block SE Division,45.50432,-122.548804,157311.6034066579
79410,4,DWELL_AT,38,14239,11100 Block SE Division,45.50432,-122.548804,157311.6034066579
79440,4,DWELL_AT,38,14239,11100 Block SE Division,45.50432,-122.548804,157311.6034066579
79470,4,DWELL_AT,38,14239,11100 Block SE Division,45.50432,-122.548804,157311.6034066579
79500,4,TRANSIT_TO,39,14240,SE Division & 75th Ave,45.50444415,-122.55285155,157627.33407885866
79530,4,TRANSIT_TO,39,14240,SE Division & 75th Ave,45.50473065,-122.56219205000001,158355.9433223989
79560,4,TRANSIT_TO,39,14240,SE Division & 75th Ave,45.50501715,-122.57153255,159084.55256593914
79590,4,TRANSIT_TO,39,14240,SE Division & 75th Ave,45.50530365,-122.58087305000001,159813.16180947938
79607,4,STOPPED_AT,39,14240,SE Division & 75th Ave,45.505466,-122.586166,160226.04038081886
79620,4,DWELL_AT,39,14240,SE Division & 75th Ave,45.505466,-122.586166,160226.04038081886
79650,4,DWELL_AT,39,14240,SE Division & 75th Ave,45.505466,-122.586166,160226.04038081886
79680,4,TRANSIT_TO,40,14241,SE Division & 59th Ave,45.50545957377049,-122.58804578688525,160372.5339651045
79710,4,TRANSIT_TO,40,14241,SE Division & 59th Ave,45.505432032786885,-122.59610201639344,161000.36361204291
79734,4,STOPPED_AT,40,14241,SE Division & 59th Ave,45.50541,-122.602547,161502.62732959367
79740,4,DWELL_AT,40,14241,SE Division & 59th Ave,45.50541,-122.602547,161502.62732959367
79770,4,DWELL_AT,40,14241,SE Division & 59th Ave,45.50541,-122.602547,161502.62732959367
79800,4,DWELL_AT,40,14241,SE Division & 59th Ave,45.50541,-122.602547,161502.62732959367
79830,4,DWELL_AT,40,14241,SE Division & 59th Ave,45.50541,-122.602547,161502.62732959367
79860,4,DWELL_AT,40,14241,SE Division & 59th Ave,45.50541,-122.602547,161502.62732959367
79890,4,TRANSIT_TO,41,14242,SE Division & 51st Ave,45.5054046,-122.60371685,161593.79582292412
79920,4,TRANSIT_TO,41,14242,SE Division & 51st Ave,45.5053866,-122.60761635,161897.69080069236
79941,4,STOPPED_AT,41,14242,SE Division & 51st Ave,45.505374,-122.610346,162110.4172851301
79950,4,DWELL_AT,41,14242,SE Division & 51st Ave,45.505374,-122.610346,162110.4172851301
79980,4,DWELL_AT,41,14242,SE Division & 51st Ave,45.505374,-122.610346,162110.4172851301
80010,4,DWELL_AT,41,14242,SE Division & 51st Ave,45.505374,-122.610346,162110.4172851301
80040,4,DWELL_AT,41,14242,SE Division & 51st Ave,45.505374,-122.610346,162110.4172851301
80070,4,DWELL_AT,41,14242,SE Division & 51st Ave,45.505374,-122.610346,162110.4172851301
80100,4,DWELL_AT,41,14242,SE Division & 51st Ave,45.505374,-122.610346,162110.4172851301
80130,4,DWELL_AT,41,14242,SE Division & 51st Ave,45.505374,-122.610346,162110.4172851301
80160,4,TRANSIT_TO,42,14243,SE Division & 20th Ave,45.50529668181819,-122.61601488636364,162552.27980360156
80190,4,TRANSIT_TO,42,14243,SE Division & 20th Ave,45.50521384090909,-122.62208869318182,163025.70393053527
80220,4,TRANSIT_TO,42,14243,SE Division & 20th Ave,45.505131000000006,-122.6281625,163499.12805746897
80250,4,TRANSIT_TO,42,14243,SE Division & 20th Ave,45.50504815909091,-122.63423630681818,163972.55218440268
80280,4,TRANSIT_TO,42,14243,SE Division & 20th Ave,45.50496531818182,-122.64031011363636,164445.9763113364
80308,4,STOPPED_AT,42,14243,SE Division & 20th Ave,45.504888,-122.645979,164887.83882980785
