stop_id,stop_code,stop_name,tts_stop_name,stop_desc,stop_lat,stop_lon,zone_id,stop_url,location_type,parent_station,direction,position
10857,10857,Gresham Central Transit Center,gresham central transit center,Eastbound stop in Gresham (Stop ID 10857),45.502718,-122.427108,B,https://trimet.org/home/stop/10857,0,,East,At
2253,2253,Gresham Central Transit Center,gresham central transit center,Eastbound stop in Gresham (Stop ID 2253),45.502592,-122.426486,B,https://trimet.org/home/stop/2253,0,,East,At
13211,13211,NE Hood & 5th,northeast hood & 5th,Southbound stop in Gresham (Stop ID 13211),45.501098,-122.428024,B,https://trimet.org/home/stop/13211,0,,South,Nearside
13033,13033,NE Hood & 2nd,northeast hood & 2nd,Southbound stop in Gresham (Stop ID 13033),45.498613,-122.427832,B,https://trimet.org/home/stop/13033,0,,South,Farside
13474,13474,E Powell & NE Elliott,east powell & northeast elliott,Eastbound stop in Gresham (Stop ID 13474),45.49792,-122.424876,B,https://trimet.org/home/stop/13474,0,,East,Opposite
4520,4520,E Powell & SE Cleveland,east powell & southeast cleveland,Eastbound stop in Gresham (Stop ID 4520),45.497919,-122.421209,B,https://trimet.org/home/stop/4520,0,,East,Nearside
4531,4531,E Powell & NE Liberty,east powell & northeast liberty,Eastbound stop in Gresham (Stop ID 4531),45.497888,-122.418723,B,https://trimet.org/home/stop/4531,0,,East,Opposite
4529,4529,E Powell & SE Hogan,east powell & southeast hogan,Eastbound stop in Gresham (Stop ID 4529),45.497829,-122.414506,B,https://trimet.org/home/stop/4529,0,,East,Nearside
4639,4639,E Powell & SE 3rd,east powell & southeast 3rd,Southbound stop in Gresham (Stop ID 4639),45.495758,-122.412109,B,https://trimet.org/home/stop/4639,0,,South,Opposite
4545,4545,E Powell & SE Rene,east powell & southeast rene,Eastbound stop in Gresham (Stop ID 4545),45.494326,-122.409729,B,https://trimet.org/home/stop/4545,0,,East,Farside
4713,4713,2800 Block SE Powell Valley,twenty-eight-hundred block southeast powell valley,Eastbound stop in Gresham (Stop ID 4713),45.493064,-122.403517,B,https://trimet.org/home/stop/4713,0,,East,At
4715,4715,SE Powell Valley & Hale,southeast powell valley & hale,Eastbound stop in Gresham (Stop ID 4715),45.492544,-122.401249,B,https://trimet.org/home/stop/4715,0,,East,Opposite
13475,13475,SE 257th/Kane & Powell Valley,"southeast 257th, kane & powell valley",Southbound stop in Gresham (Stop ID 13475),45.49147,-122.398983,B,https://trimet.org/home/stop/13475,0,,South,Farside
13554,13554,SE 257th/Kane & 11th,"southeast 257th, kane & 11th",Southbound stop in Gresham (Stop ID 13554),45.48911,-122.398653,B,https://trimet.org/home/stop/13554,0,,South,Nearside
4231,4231,SE Orient Dr & 14th ,southeast orient drive & 14th ,Southbound stop in Gresham (Stop ID 4231),45.485929,-122.397177,B,https://trimet.org/home/stop/4231,0,,South,Farside
9233,9233,1800 Block SE Orient Dr,eighteen-hundred block southeast orient drive,Eastbound stop in Gresham (Stop ID 9233),45.484018,-122.394979,B,https://trimet.org/home/stop/9233,0,,East,Nearside
13555,13555,SE Orient Dr & Chase,southeast orient drive & chase,Southbound stop in Gresham (Stop ID 13555),45.478503,-122.388731,B,https://trimet.org/home/stop/13555,0,,South,Opposite
4230,4230,SE Orient Dr & Welch Rd,southeast orient drive & welch road,Southbound stop in Gresham (Stop ID 4230),45.47569,-122.385419,B,https://trimet.org/home/stop/4230,0,,South,Farside
13650,13650,SE Orient Dr & Elsa St,southeast orient drive & elsa street,Eastbound stop in Multnomah Co. (Stop ID 13650),45.471538,-122.375957,B,https://trimet.org/home/stop/13650,0,,East,Nearside
13560,13560,SE 282nd & Welch Rd,southeast 282nd & welch road,Northbound stop in Gresham (Stop ID 13560),45.476036,-122.37262,B,https://trimet.org/home/stop/13560,0,,North,Farside
7297,7297,SE 282nd & Chase,southeast 282nd & chase,Northbound stop in Gresham (Stop ID 7297),45.47907,-122.37259,B,https://trimet.org/home/stop/7297,0,,North,Nearside
13561,13561,SE 282nd & Salquist,southeast 282nd & sawlquist,Northbound stop in Gresham (Stop ID 13561),45.483048,-122.372615,B,https://trimet.org/home/stop/13561,0,,North,Farside
13867,13867,SE 282nd & Powell Valley,southeast 282nd & powell valley,Northbound stop in Gresham (Stop ID 13867),45.487817,-122.37261,B,https://trimet.org/home/stop/13867,0,,North,Nearside
13562,13562,Powell Valley & Old Woods Lp Flag Stop,powell valley & old woods lp flag stop,Westbound stop in Gresham (Stop ID 13562),45.488317,-122.376921,B,https://trimet.org/home/stop/13562,0,,West,At
4719,4719,SE Powell Valley & Dogwood,southeast powell valley & dogwood,Westbound stop in Gresham (Stop ID 4719),45.490258,-122.383515,B,https://trimet.org/home/stop/4719,0,,West,Nearside
8945,8945,SE Powell Valley & Greenway,southeast powell valley & greenway,Westbound stop in Gresham (Stop ID 8945),45.490482,-122.388496,B,https://trimet.org/home/stop/8945,0,,West,Farside
9383,9383,SE Powell Valley & Barnes Flag Stop - 20230804,southeast powell valley & barnes flag stop,Westbound stop in Gresham (Stop ID 9383),45.49039,-122.393125,B,https://trimet.org/home/stop/9383,0,,West,At
4720,4720,SE Powell Valley & Robin,southeast powell valley & robin,Westbound stop in Gresham (Stop ID 4720),45.492896,-122.401776,B,https://trimet.org/home/stop/4720,0,,West,Opposite
4714,4714,2800 Block SE Powell Valley,twenty-eight-hundred block southeast powell valley,Westbound stop in Gresham (Stop ID 4714),45.493288,-122.403489,B,https://trimet.org/home/stop/4714,0,,West,At
4518,4518,E Powell & SE Burnside,east powell & southeast burnside,Westbound stop in Gresham (Stop ID 4518),45.494175,-122.40753,B,https://trimet.org/home/stop/4518,0,,West,Farside
4546,4546,E Powell & SE Rene,east powell & southeast rene,Westbound stop in Gresham (Stop ID 4546),45.494565,-122.409819,B,https://trimet.org/home/stop/4546,0,,West,Opposite
4638,4638,E Powell & SE 3rd,east powell & southeast 3rd,Northbound stop in Gresham (Stop ID 4638),45.49611,-122.411966,B,https://trimet.org/home/stop/4638,0,,North,Farside
4528,4528,E Powell & NE Hogan,east powell & northeast hogan,Westbound stop in Gresham (Stop ID 4528),45.497948,-122.413778,B,https://trimet.org/home/stop/4528,0,,West,Nearside
8461,8461,E Powell & NE Liberty,east powell & northeast liberty,Westbound stop in Gresham (Stop ID 8461),45.498117,-122.418266,B,https://trimet.org/home/stop/8461,0,,West,Nearside
4521,4521,E Powell & NE Cleveland,east powell & northeast cleveland,Westbound stop in Gresham (Stop ID 4521),45.498148,-122.421777,B,https://trimet.org/home/stop/4521,0,,West,Farside
13473,13473,E Powell & NE Elliott,east powell & northeast elliott,Westbound stop in Gresham (Stop ID 13473),45.49817,-122.424482,B,https://trimet.org/home/stop/13473,0,,West,Nearside
10657,10657,NE Hood & 2nd,northeast hood & 2nd,Northbound stop in Gresham (Stop ID 10657),45.498868,-122.427625,B,https://trimet.org/home/stop/10657,0,,North,Nearside
10654,10654,NE Hood & 5th,northeast hood & 5th,Northbound stop in Gresham (Stop ID 10654),45.500913,-122.427922,B,https://trimet.org/home/stop/10654,0,,North,Nearside
10857,10857,Gresham Central Transit Center,gresham central transit center,Eastbound stop in Gresham (Stop ID 10857),45.502718,-122.427108,B,https://trimet.org/home/stop/10857,0,,East,At
8199,8199,Gresham Central Transit Center,gresham central transit center,Eastbound stop in Gresham (Stop ID 8199),45.502862,-122.426918,B,https://trimet.org/home/stop/8199,0,,East,At